<?xml version="1.0" encoding="UTF-8"?>
<kml xmlns="http://earth.google.com/kml/2.0">
	<Document>
		<open>1</open>
		<Folder>
			<name>Nu_geoname Drawing</name>
			<Placemark>
				<description>90086</description>
				<name>Bowman Bay</name>
				<Style>
					<IconStyle>
						<color>ffc0c0c0</color>
					</IconStyle>
				</Style>
				<Point>
					<extrude>1</extrude>
					<coordinates>-73.666699998721,65.50,0.00 </coordinates>
				</Point>
			</Placemark>
			<Placemark>
				<description>90087</description>
				<name>Cone Hill</name>
				<Style>
					<IconStyle>
						<color>ffc0c0c0</color>
					</IconStyle>
				</Style>
				<Point>
					<extrude>1</extrude>
					<coordinates>-72.383300001674996,65.866699997738891,0.00 </coordinates>
				</Point>
			</Placemark>
			<Placemark>
				<description>90088</description>
				<name>Farley Point</name>
				<Style>
					<IconStyle>
						<color>ffc0c0c0</color>
					</IconStyle>
				</Style>
				<Point>
					<extrude>1</extrude>
					<coordinates>-73.966700000746982,65.533299997495646,0.00 </coordinates>
				</Point>
			</Placemark>
			<Placemark>
				<description>90089</description>
				<name>Pingua Hills</name>
				<Style>
					<IconStyle>
						<color>ffc0c0c0</color>
					</IconStyle>
				</Style>
				<Point>
					<extrude>1</extrude>
					<coordinates>-71.75,65.93329999671235,0.00 </coordinates>
				</Point>
			</Placemark>
			<Placemark>
				<description>90090</description>
				<name>Refuge d&apos;oiseaux de Dewey Soper</name>
				<Style>
					<IconStyle>
						<color>ffc0c0c0</color>
					</IconStyle>
				</Style>
				<Point>
					<extrude>1</extrude>
					<coordinates>-73.58333289,65.999999889299829,0.00 </coordinates>
				</Point>
			</Placemark>
			<Placemark>
				<description>90091</description>
				<name>Baffin Island</name>
				<Style>
					<IconStyle>
						<color>ffc0c0c0</color>
					</IconStyle>
				</Style>
				<Point>
					<extrude>1</extrude>
					<coordinates>-70.00,68.00,0.00 </coordinates>
				</Point>
			</Placemark>
			<Placemark>
				<description>90092</description>
				<name>Putnam Highland</name>
				<Style>
					<IconStyle>
						<color>ffc0c0c0</color>
					</IconStyle>
				</Style>
				<Point>
					<extrude>1</extrude>
					<coordinates>-73.166700002330003,65.25,0.00 </coordinates>
				</Point>
			</Placemark>
			<Placemark>
				<description>90093</description>
				<name>&#206;le de Baffin</name>
				<Style>
					<IconStyle>
						<color>ffc0c0c0</color>
					</IconStyle>
				</Style>
				<Point>
					<extrude>1</extrude>
					<coordinates>-70.00,68.00,0.00 </coordinates>
				</Point>
			</Placemark>
			<Placemark>
				<description>90094</description>
				<name>Foxe Peninsula</name>
				<Style>
					<IconStyle>
						<color>ffc0c0c0</color>
					</IconStyle>
				</Style>
				<Point>
					<extrude>1</extrude>
					<coordinates>-76.00,65.00,0.00 </coordinates>
				</Point>
			</Placemark>
			<Placemark>
				<description>90095</description>
				<name>Floe Bay</name>
				<Style>
					<IconStyle>
						<color>ffc0c0c0</color>
					</IconStyle>
				</Style>
				<Point>
					<extrude>1</extrude>
					<coordinates>-73.999999810000006,65.516666809289276,0.00 </coordinates>
				</Point>
			</Placemark>
			<Placemark>
				<description>90096</description>
				<name>Dewey Soper Bird Sanctuary</name>
				<Style>
					<IconStyle>
						<color>ffc0c0c0</color>
					</IconStyle>
				</Style>
				<Point>
					<extrude>1</extrude>
					<coordinates>-73.58333289,65.999999889299829,0.00 </coordinates>
				</Point>
			</Placemark>
			<Placemark>
				<description>90097</description>
				<name>Qallik Lake</name>
				<Style>
					<IconStyle>
						<color>ffc0c0c0</color>
					</IconStyle>
				</Style>
				<Point>
					<extrude>1</extrude>
					<coordinates>-73.766700001142013,64.966699996880521,0.00 </coordinates>
				</Point>
			</Placemark>
			<Placemark>
				<description>90098</description>
				<name>Bluegoose River</name>
				<Style>
					<IconStyle>
						<color>ffc0c0c0</color>
					</IconStyle>
				</Style>
				<Point>
					<extrude>1</extrude>
					<coordinates>-73.533299998089007,65.45,0.00 </coordinates>
				</Point>
			</Placemark>
			<Placemark>
				<description>90099</description>
				<name>Bluegoose Prairie</name>
				<Style>
					<IconStyle>
						<color>ffc0c0c0</color>
					</IconStyle>
				</Style>
				<Point>
					<extrude>1</extrude>
					<coordinates>-73.50,65.533299997495646,0.00 </coordinates>
				</Point>
			</Placemark>
			<Placemark>
				<description>90100</description>
				<name>Great Plain of the Koukdjuak</name>
				<Style>
					<IconStyle>
						<color>ffc0c0c0</color>
					</IconStyle>
				</Style>
				<Point>
					<extrude>1</extrude>
					<coordinates>-72.83333331,66.416666609309075,0.00 </coordinates>
				</Point>
			</Placemark>
			<Placemark>
				<description>90101</description>
				<name>Foxe Basin</name>
				<Style>
					<IconStyle>
						<color>ffc0c0c0</color>
					</IconStyle>
				</Style>
				<Point>
					<extrude>1</extrude>
					<coordinates>-77.91944381,65.930555809298298,0.00 </coordinates>
				</Point>
			</Placemark>
			<Placemark>
				<description>90102</description>
				<name>Aukpar River</name>
				<Style>
					<IconStyle>
						<color>ffc0c0c0</color>
					</IconStyle>
				</Style>
				<Point>
					<extrude>1</extrude>
					<coordinates>-73.966700000746982,65.50,0.00 </coordinates>
				</Point>
			</Placemark>
			<Placemark>
				<description>90103</description>
				<name>Kokittwa Hill</name>
				<Style>
					<IconStyle>
						<color>ffc0c0c0</color>
					</IconStyle>
				</Style>
				<Point>
					<extrude>1</extrude>
					<coordinates>-73.766700001142013,65.35,0.00 </coordinates>
				</Point>
			</Placemark>
			<Placemark>
				<description>90104</description>
				<name>Koukdjuak River</name>
				<Style>
					<IconStyle>
						<color>ffc0c0c0</color>
					</IconStyle>
				</Style>
				<Point>
					<extrude>1</extrude>
					<coordinates>-73.00,66.71669999738485,0.00 </coordinates>
				</Point>
			</Placemark>
			<Placemark>
				<description>90105</description>
				<name>Cape Dominion</name>
				<Style>
					<IconStyle>
						<color>ffc0c0c0</color>
					</IconStyle>
				</Style>
				<Point>
					<extrude>1</extrude>
					<coordinates>-74.466700002376001,66.166699999770515,0.00 </coordinates>
				</Point>
			</Placemark>
			<Placemark>
				<description>90106</description>
				<name>Nuwata</name>
				<Style>
					<IconStyle>
						<color>ffc0c0c0</color>
					</IconStyle>
				</Style>
				<Point>
					<extrude>1</extrude>
					<coordinates>-77.61670000007102,65.133299998278048,0.00 </coordinates>
				</Point>
			</Placemark>
			<Placemark>
				<description>90107</description>
				<name>Cape Dorchester</name>
				<Style>
					<IconStyle>
						<color>ffc0c0c0</color>
					</IconStyle>
				</Style>
				<Point>
					<extrude>1</extrude>
					<coordinates>-77.45,65.45,0.00 </coordinates>
				</Point>
			</Placemark>
			<Placemark>
				<description>90108</description>
				<name>MacNabb Lake</name>
				<Style>
					<IconStyle>
						<color>ffc0c0c0</color>
					</IconStyle>
				</Style>
				<Point>
					<extrude>1</extrude>
					<coordinates>-77.083333,65.299999889284592,0.00 </coordinates>
				</Point>
			</Placemark>
			<Placemark>
				<description>90109</description>
				<name>Cape Willoughby</name>
				<Style>
					<IconStyle>
						<color>ffc0c0c0</color>
					</IconStyle>
				</Style>
				<Point>
					<extrude>1</extrude>
					<coordinates>-77.116699998442002,65.45,0.00 </coordinates>
				</Point>
			</Placemark>
			<Placemark>
				<description>90110</description>
				<name>Dorchester Bay</name>
				<Style>
					<IconStyle>
						<color>ffc0c0c0</color>
					</IconStyle>
				</Style>
				<Point>
					<extrude>1</extrude>
					<coordinates>-77.05,65.416699997310133,0.00 </coordinates>
				</Point>
			</Placemark>
			<Placemark>
				<description>90111</description>
				<name>Wildbird Islands</name>
				<Style>
					<IconStyle>
						<color>ffc0c0c0</color>
					</IconStyle>
				</Style>
				<Point>
					<extrude>1</extrude>
					<coordinates>-78.033300002280001,65.016699998092577,0.00 </coordinates>
				</Point>
			</Placemark>
			<Placemark>
				<description>90112</description>
				<name>Nabukjuak Bay</name>
				<Style>
					<IconStyle>
						<color>ffc0c0c0</color>
					</IconStyle>
				</Style>
				<Point>
					<extrude>1</extrude>
					<coordinates>-77.416700000467003,65.40,0.00 </coordinates>
				</Point>
			</Placemark>
			<Placemark>
				<description>90113</description>
				<name>Peregrine Point</name>
				<Style>
					<IconStyle>
						<color>ffc0c0c0</color>
					</IconStyle>
				</Style>
				<Point>
					<extrude>1</extrude>
					<coordinates>-76.816700001654979,65.433300000310467,0.00 </coordinates>
				</Point>
			</Placemark>
			<Placemark>
				<description>90114</description>
				<name>Foxe Channel</name>
				<Style>
					<IconStyle>
						<color>ffc0c0c0</color>
					</IconStyle>
				</Style>
				<Point>
					<extrude>1</extrude>
					<coordinates>-79.999999810000006,65.00,0.00 </coordinates>
				</Point>
			</Placemark>
			<Placemark>
				<description>90115</description>
				<name>Cape Weston</name>
				<Style>
					<IconStyle>
						<color>ffc0c0c0</color>
					</IconStyle>
				</Style>
				<Point>
					<extrude>1</extrude>
					<coordinates>-77.483299999440007,65.383299999098398,0.00 </coordinates>
				</Point>
			</Placemark>
			<Placemark>
				<description>90116</description>
				<name>Weston Escarpment</name>
				<Style>
					<IconStyle>
						<color>ffc0c0c0</color>
					</IconStyle>
				</Style>
				<Point>
					<extrude>1</extrude>
					<coordinates>-77.083300000231006,65.05,0.00 </coordinates>
				</Point>
			</Placemark>
			<Placemark>
				<description>90117</description>
				<name>Finnie Bay</name>
				<Style>
					<IconStyle>
						<color>ffc0c0c0</color>
					</IconStyle>
				</Style>
				<Point>
					<extrude>1</extrude>
					<coordinates>-77.50,65.216699997700815,0.00 </coordinates>
				</Point>
			</Placemark>
			<Placemark>
				<description>90118</description>
				<name>Pebble Brook</name>
				<Style>
					<IconStyle>
						<color>ffc0c0c0</color>
					</IconStyle>
				</Style>
				<Point>
					<extrude>1</extrude>
					<coordinates>-72.35,67.10,0.00 </coordinates>
				</Point>
			</Placemark>
			<Placemark>
				<description>90119</description>
				<name>Weeks Bay</name>
				<Style>
					<IconStyle>
						<color>ffc0c0c0</color>
					</IconStyle>
				</Style>
				<Point>
					<extrude>1</extrude>
					<coordinates>-72.783300000883003,67.85,0.00 </coordinates>
				</Point>
			</Placemark>
			<Placemark>
				<description>90120</description>
				<name>Figgures Point</name>
				<Style>
					<IconStyle>
						<color>ffc0c0c0</color>
					</IconStyle>
				</Style>
				<Point>
					<extrude>1</extrude>
					<coordinates>-72.30,67.283299997999791,0.00 </coordinates>
				</Point>
			</Placemark>
			<Placemark>
				<description>90121</description>
				<name>Hantzsch Bay</name>
				<Style>
					<IconStyle>
						<color>ffc0c0c0</color>
					</IconStyle>
				</Style>
				<Point>
					<extrude>1</extrude>
					<coordinates>-72.516700002307005,67.566699997032373,0.00 </coordinates>
				</Point>
			</Placemark>
			<Placemark>
				<description>90122</description>
				<name>Parry Point</name>
				<Style>
					<IconStyle>
						<color>ffc0c0c0</color>
					</IconStyle>
				</Style>
				<Point>
					<extrude>1</extrude>
					<coordinates>-72.95,67.983299999250178,0.00 </coordinates>
				</Point>
			</Placemark>
			<Placemark>
				<description>90123</description>
				<name>Air Force Island</name>
				<Style>
					<IconStyle>
						<color>ffc0c0c0</color>
					</IconStyle>
				</Style>
				<Point>
					<extrude>1</extrude>
					<coordinates>-74.083300000929995,67.966700001488761,0.00 </coordinates>
				</Point>
			</Placemark>
			<Placemark>
				<description>90124</description>
				<name>Hantzsch River</name>
				<Style>
					<IconStyle>
						<color>ffc0c0c0</color>
					</IconStyle>
				</Style>
				<Point>
					<extrude>1</extrude>
					<coordinates>-72.4167,67.533299998820596,0.00 </coordinates>
				</Point>
			</Placemark>
			<Placemark>
				<description>90125</description>
				<name>Taverner Bay</name>
				<Style>
					<IconStyle>
						<color>ffc0c0c0</color>
					</IconStyle>
				</Style>
				<Point>
					<extrude>1</extrude>
					<coordinates>-72.4167,67.20,0.00 </coordinates>
				</Point>
			</Placemark>
			<Placemark>
				<description>90126</description>
				<name>Nunajuak Island</name>
				<Style>
					<IconStyle>
						<color>ffc0c0c0</color>
					</IconStyle>
				</Style>
				<Point>
					<extrude>1</extrude>
					<coordinates>-76.00,64.316699996843965,0.00 </coordinates>
				</Point>
			</Placemark>
			<Placemark>
				<description>90127</description>
				<name>Catherine Bay</name>
				<Style>
					<IconStyle>
						<color>ffc0c0c0</color>
					</IconStyle>
				</Style>
				<Point>
					<extrude>1</extrude>
					<coordinates>-75.966700002026997,64.383300001056341,0.00 </coordinates>
				</Point>
			</Placemark>
			<Placemark>
				<description>90128</description>
				<name>Tunitjuak Island</name>
				<Style>
					<IconStyle>
						<color>ffc0c0c0</color>
					</IconStyle>
				</Style>
				<Point>
					<extrude>1</extrude>
					<coordinates>-75.80,64.283299998633268,0.00 </coordinates>
				</Point>
			</Placemark>
			<Placemark>
				<description>90129</description>
				<name>Nesfield Island</name>
				<Style>
					<IconStyle>
						<color>ffc0c0c0</color>
					</IconStyle>
				</Style>
				<Point>
					<extrude>1</extrude>
					<coordinates>-75.783300000184994,64.30,0.00 </coordinates>
				</Point>
			</Placemark>
			<Placemark>
				<description>90130</description>
				<name>Innuksuk Island</name>
				<Style>
					<IconStyle>
						<color>ffc0c0c0</color>
					</IconStyle>
				</Style>
				<Point>
					<extrude>1</extrude>
					<coordinates>-75.7708,64.302799998686666,0.00 </coordinates>
				</Point>
			</Placemark>
			<Placemark>
				<description>90131</description>
				<name>Luke Island</name>
				<Style>
					<IconStyle>
						<color>ffc0c0c0</color>
					</IconStyle>
				</Style>
				<Point>
					<extrude>1</extrude>
					<coordinates>-75.75,64.283299998633268,0.00 </coordinates>
				</Point>
			</Placemark>
			<Placemark>
				<description>90132</description>
				<name>Alareak Island</name>
				<Style>
					<IconStyle>
						<color>ffc0c0c0</color>
					</IconStyle>
				</Style>
				<Point>
					<extrude>1</extrude>
					<coordinates>-75.60,64.316699996843965,0.00 </coordinates>
				</Point>
			</Placemark>
			<Placemark>
				<description>90133</description>
				<name>Pungnertuk Point</name>
				<Style>
					<IconStyle>
						<color>ffc0c0c0</color>
					</IconStyle>
				</Style>
				<Point>
					<extrude>1</extrude>
					<coordinates>-75.80,64.366699998055992,0.00 </coordinates>
				</Point>
			</Placemark>
			<Placemark>
				<description>90134</description>
				<name>Kinguk Lake</name>
				<Style>
					<IconStyle>
						<color>ffc0c0c0</color>
					</IconStyle>
				</Style>
				<Point>
					<extrude>1</extrude>
					<coordinates>-75.50,64.666700000087204,0.00 </coordinates>
				</Point>
			</Placemark>
			<Placemark>
				<description>90135</description>
				<name>Tuksha Lake</name>
				<Style>
					<IconStyle>
						<color>ffc0c0c0</color>
					</IconStyle>
				</Style>
				<Point>
					<extrude>1</extrude>
					<coordinates>-75.20,64.58330000066448,0.00 </coordinates>
				</Point>
			</Placemark>
			<Placemark>
				<description>90136</description>
				<name>Archibald Bay</name>
				<Style>
					<IconStyle>
						<color>ffc0c0c0</color>
					</IconStyle>
				</Style>
				<Point>
					<extrude>1</extrude>
					<coordinates>-74.216700001562003,64.383300001056341,0.00 </coordinates>
				</Point>
			</Placemark>
			<Placemark>
				<description>90137</description>
				<name>Shugba Bay</name>
				<Style>
					<IconStyle>
						<color>ffc0c0c0</color>
					</IconStyle>
				</Style>
				<Point>
					<extrude>1</extrude>
					<coordinates>-74.133300002140004,64.666700000087204,0.00 </coordinates>
				</Point>
			</Placemark>
			<Placemark>
				<description>90138</description>
				<name>Alna Lake</name>
				<Style>
					<IconStyle>
						<color>ffc0c0c0</color>
					</IconStyle>
				</Style>
				<Point>
					<extrude>1</extrude>
					<coordinates>-75.816699998394995,64.95,0.00 </coordinates>
				</Point>
			</Placemark>
			<Placemark>
				<description>90139</description>
				<name>Ameetuk Lake</name>
				<Style>
					<IconStyle>
						<color>ffc0c0c0</color>
					</IconStyle>
				</Style>
				<Point>
					<extrude>1</extrude>
					<coordinates>-75.533299999370001,64.733299999061614,0.00 </coordinates>
				</Point>
			</Placemark>
			<Placemark>
				<description>90140</description>
				<name>Tessik Lake</name>
				<Style>
					<IconStyle>
						<color>ffc0c0c0</color>
					</IconStyle>
				</Style>
				<Point>
					<extrude>1</extrude>
					<coordinates>-75.366699997975999,64.816699998484353,0.00 </coordinates>
				</Point>
			</Placemark>
			<Placemark>
				<description>90141</description>
				<name>Eshulik Lake</name>
				<Style>
					<IconStyle>
						<color>ffc0c0c0</color>
					</IconStyle>
				</Style>
				<Point>
					<extrude>1</extrude>
					<coordinates>-74.533300001349005,64.70,0.00 </coordinates>
				</Point>
			</Placemark>
			<Placemark>
				<description>90142</description>
				<name>Tikirajujuk Lake</name>
				<Style>
					<IconStyle>
						<color>ffc0c0c0</color>
					</IconStyle>
				</Style>
				<Point>
					<extrude>1</extrude>
					<coordinates>-74.216700001562003,64.916700000907468,0.00 </coordinates>
				</Point>
			</Placemark>
			<Placemark>
				<description>90143</description>
				<name>Diamond Islands</name>
				<Style>
					<IconStyle>
						<color>ffc0c0c0</color>
					</IconStyle>
				</Style>
				<Point>
					<extrude>1</extrude>
					<coordinates>-73.933300002536001,64.316699996843965,0.00 </coordinates>
				</Point>
			</Placemark>
			<Placemark>
				<description>90144</description>
				<name>Angmaluk Lake</name>
				<Style>
					<IconStyle>
						<color>ffc0c0c0</color>
					</IconStyle>
				</Style>
				<Point>
					<extrude>1</extrude>
					<coordinates>-75.40,64.9833,0.00 </coordinates>
				</Point>
			</Placemark>
			<Placemark>
				<description>90145</description>
				<name>Kimmik Range</name>
				<Style>
					<IconStyle>
						<color>ffc0c0c0</color>
					</IconStyle>
				</Style>
				<Point>
					<extrude>1</extrude>
					<coordinates>-76.33333289,64.75,0.00 </coordinates>
				</Point>
			</Placemark>
			<Placemark>
				<description>90146</description>
				<name>Coatesworth Island</name>
				<Style>
					<IconStyle>
						<color>ffc0c0c0</color>
					</IconStyle>
				</Style>
				<Point>
					<extrude>1</extrude>
					<coordinates>-75.766700002422994,64.283299998633268,0.00 </coordinates>
				</Point>
			</Placemark>
			<Placemark>
				<description>90147</description>
				<name>Hume Island</name>
				<Style>
					<IconStyle>
						<color>ffc0c0c0</color>
					</IconStyle>
				</Style>
				<Point>
					<extrude>1</extrude>
					<coordinates>-75.783300000184994,64.30,0.00 </coordinates>
				</Point>
			</Placemark>
			<Placemark>
				<description>90148</description>
				<name>Saunders River</name>
				<Style>
					<IconStyle>
						<color>ffc0c0c0</color>
					</IconStyle>
				</Style>
				<Point>
					<extrude>1</extrude>
					<coordinates>-75.85,64.616699998876157,0.00 </coordinates>
				</Point>
			</Placemark>
			<Placemark>
				<description>90149</description>
				<name>Terreoukchuk Bay</name>
				<Style>
					<IconStyle>
						<color>ffc0c0c0</color>
					</IconStyle>
				</Style>
				<Point>
					<extrude>1</extrude>
					<coordinates>-75.566699997580002,64.55,0.00 </coordinates>
				</Point>
			</Placemark>
			<Placemark>
				<description>90150</description>
				<name>Ikirasak Passage</name>
				<Style>
					<IconStyle>
						<color>ffc0c0c0</color>
					</IconStyle>
				</Style>
				<Point>
					<extrude>1</extrude>
					<coordinates>-75.183300001372004,64.416699999268019,0.00 </coordinates>
				</Point>
			</Placemark>
			<Placemark>
				<description>90151</description>
				<name>Cape James</name>
				<Style>
					<IconStyle>
						<color>ffc0c0c0</color>
					</IconStyle>
				</Style>
				<Point>
					<extrude>1</extrude>
					<coordinates>-74.133300002140004,64.3332999998443,0.00 </coordinates>
				</Point>
			</Placemark>
			<Placemark>
				<description>90152</description>
				<name>Shidawa Lake</name>
				<Style>
					<IconStyle>
						<color>ffc0c0c0</color>
					</IconStyle>
				</Style>
				<Point>
					<extrude>1</extrude>
					<coordinates>-75.30,65.00,0.00 </coordinates>
				</Point>
			</Placemark>
			<Placemark>
				<description>90153</description>
				<name>Pangnik Lake</name>
				<Style>
					<IconStyle>
						<color>ffc0c0c0</color>
					</IconStyle>
				</Style>
				<Point>
					<extrude>1</extrude>
					<coordinates>-75.133300000161,64.70,0.00 </coordinates>
				</Point>
			</Placemark>
			<Placemark>
				<description>90154</description>
				<name>Neakok Lake</name>
				<Style>
					<IconStyle>
						<color>ffc0c0c0</color>
					</IconStyle>
				</Style>
				<Point>
					<extrude>1</extrude>
					<coordinates>-75.333299999765998,64.566699997664131,0.00 </coordinates>
				</Point>
			</Placemark>
			<Placemark>
				<description>90155</description>
				<name>Nukvuk Lake</name>
				<Style>
					<IconStyle>
						<color>ffc0c0c0</color>
					</IconStyle>
				</Style>
				<Point>
					<extrude>1</extrude>
					<coordinates>-75.916700000815993,65.016699998092577,0.00 </coordinates>
				</Point>
			</Placemark>
			<Placemark>
				<description>90156</description>
				<name>West Foxe Islands</name>
				<Style>
					<IconStyle>
						<color>ffc0c0c0</color>
					</IconStyle>
				</Style>
				<Point>
					<extrude>1</extrude>
					<coordinates>-75.75,64.291700001476457,0.00 </coordinates>
				</Point>
			</Placemark>
			<Placemark>
				<description>90157</description>
				<name>Honting Island</name>
				<Style>
					<IconStyle>
						<color>ffc0c0c0</color>
					</IconStyle>
				</Style>
				<Point>
					<extrude>1</extrude>
					<coordinates>-75.766700002422994,64.316699996843965,0.00 </coordinates>
				</Point>
			</Placemark>
			<Placemark>
				<description>90158</description>
				<name>Andrew Gordon Bay</name>
				<Style>
					<IconStyle>
						<color>ffc0c0c0</color>
					</IconStyle>
				</Style>
				<Point>
					<extrude>1</extrude>
					<coordinates>-75.50,64.45,0.00 </coordinates>
				</Point>
			</Placemark>
			<Placemark>
				<description>90159</description>
				<name>Chorkbak Inlet</name>
				<Style>
					<IconStyle>
						<color>ffc0c0c0</color>
					</IconStyle>
				</Style>
				<Point>
					<extrude>1</extrude>
					<coordinates>-74.416700001166006,64.50,0.00 </coordinates>
				</Point>
			</Placemark>
			<Placemark>
				<description>90160</description>
				<name>Russell Island</name>
				<Style>
					<IconStyle>
						<color>ffc0c0c0</color>
					</IconStyle>
				</Style>
				<Point>
					<extrude>1</extrude>
					<coordinates>-75.783300000184994,64.30,0.00 </coordinates>
				</Point>
			</Placemark>
			<Placemark>
				<description>90161</description>
				<name>Gudmusson Island</name>
				<Style>
					<IconStyle>
						<color>ffc0c0c0</color>
					</IconStyle>
				</Style>
				<Point>
					<extrude>1</extrude>
					<coordinates>-75.816699998394995,64.30,0.00 </coordinates>
				</Point>
			</Placemark>
			<Placemark>
				<description>90162</description>
				<name>D&#233;troit d&apos;Hudson</name>
				<Style>
					<IconStyle>
						<color>ffc0c0c0</color>
					</IconStyle>
				</Style>
				<Point>
					<extrude>1</extrude>
					<coordinates>-69.999999810000006,62.00,0.00 </coordinates>
				</Point>
			</Placemark>
			<Placemark>
				<description>90163</description>
				<name>Schioler Island</name>
				<Style>
					<IconStyle>
						<color>ffc0c0c0</color>
					</IconStyle>
				</Style>
				<Point>
					<extrude>1</extrude>
					<coordinates>-75.80,64.30,0.00 </coordinates>
				</Point>
			</Placemark>
			<Placemark>
				<description>90164</description>
				<name>Shukbuk Bay</name>
				<Style>
					<IconStyle>
						<color>ffc0c0c0</color>
					</IconStyle>
				</Style>
				<Point>
					<extrude>1</extrude>
					<coordinates>-74.666700001980999,64.833300001484702,0.00 </coordinates>
				</Point>
			</Placemark>
			<Placemark>
				<description>90165</description>
				<name>Sannirut Lake</name>
				<Style>
					<IconStyle>
						<color>ffc0c0c0</color>
					</IconStyle>
				</Style>
				<Point>
					<extrude>1</extrude>
					<coordinates>-75.55,64.58330000066448,0.00 </coordinates>
				</Point>
			</Placemark>
			<Placemark>
				<description>90166</description>
				<name>Hudson Strait</name>
				<Style>
					<IconStyle>
						<color>ffc0c0c0</color>
					</IconStyle>
				</Style>
				<Point>
					<extrude>1</extrude>
					<coordinates>-69.999999810000006,62.00,0.00 </coordinates>
				</Point>
			</Placemark>
			<Placemark>
				<description>90167</description>
				<name>Blades Island</name>
				<Style>
					<IconStyle>
						<color>ffc0c0c0</color>
					</IconStyle>
				</Style>
				<Point>
					<extrude>1</extrude>
					<coordinates>-75.75,64.283299998633268,0.00 </coordinates>
				</Point>
			</Placemark>
			<Placemark>
				<description>90168</description>
				<name>Aquiatulavik Point</name>
				<Style>
					<IconStyle>
						<color>ffc0c0c0</color>
					</IconStyle>
				</Style>
				<Point>
					<extrude>1</extrude>
					<coordinates>-74.70,64.366699998055992,0.00 </coordinates>
				</Point>
			</Placemark>
			<Placemark>
				<description>90169</description>
				<name>Putaguk Island</name>
				<Style>
					<IconStyle>
						<color>ffc0c0c0</color>
					</IconStyle>
				</Style>
				<Point>
					<extrude>1</extrude>
					<coordinates>-75.75,64.316699996843965,0.00 </coordinates>
				</Point>
			</Placemark>
			<Placemark>
				<description>90170</description>
				<name>Bildfell Island</name>
				<Style>
					<IconStyle>
						<color>ffc0c0c0</color>
					</IconStyle>
				</Style>
				<Point>
					<extrude>1</extrude>
					<coordinates>-75.783300000184994,64.30,0.00 </coordinates>
				</Point>
			</Placemark>
			<Placemark>
				<description>90171</description>
				<name>Qinniaq Cove</name>
				<Style>
					<IconStyle>
						<color>ffc0c0c0</color>
					</IconStyle>
				</Style>
				<Point>
					<extrude>1</extrude>
					<coordinates>-75.60,64.55,0.00 </coordinates>
				</Point>
			</Placemark>
			<Placemark>
				<description>90172</description>
				<name>Lona Bay</name>
				<Style>
					<IconStyle>
						<color>ffc0c0c0</color>
					</IconStyle>
				</Style>
				<Point>
					<extrude>1</extrude>
					<coordinates>-77.583300001861005,64.3332999998443,0.00 </coordinates>
				</Point>
			</Placemark>
			<Placemark>
				<description>90173</description>
				<name>Julian Point</name>
				<Style>
					<IconStyle>
						<color>ffc0c0c0</color>
					</IconStyle>
				</Style>
				<Point>
					<extrude>1</extrude>
					<coordinates>-74.266699997534005,64.35,0.00 </coordinates>
				</Point>
			</Placemark>
			<Placemark>
				<description>90174</description>
				<name>Ooglukjuak Island</name>
				<Style>
					<IconStyle>
						<color>ffc0c0c0</color>
					</IconStyle>
				</Style>
				<Point>
					<extrude>1</extrude>
					<coordinates>-75.683299997763001,64.266700000870927,0.00 </coordinates>
				</Point>
			</Placemark>
			<Placemark>
				<description>90175</description>
				<name>Dunne Island</name>
				<Style>
					<IconStyle>
						<color>ffc0c0c0</color>
					</IconStyle>
				</Style>
				<Point>
					<extrude>1</extrude>
					<coordinates>-75.766700002422994,64.283299998633268,0.00 </coordinates>
				</Point>
			</Placemark>
			<Placemark>
				<description>90176</description>
				<name>Kigaviak Lake</name>
				<Style>
					<IconStyle>
						<color>ffc0c0c0</color>
					</IconStyle>
				</Style>
				<Point>
					<extrude>1</extrude>
					<coordinates>-74.133300002140004,64.833300001484702,0.00 </coordinates>
				</Point>
			</Placemark>
			<Placemark>
				<description>90177</description>
				<name>Cape Willingdon</name>
				<Style>
					<IconStyle>
						<color>ffc0c0c0</color>
					</IconStyle>
				</Style>
				<Point>
					<extrude>1</extrude>
					<coordinates>-75.49999989,64.316666889263942,0.00 </coordinates>
				</Point>
			</Placemark>
			<Placemark>
				<description>90178</description>
				<name>Gravell Point</name>
				<Style>
					<IconStyle>
						<color>ffc0c0c0</color>
					</IconStyle>
				</Style>
				<Point>
					<extrude>1</extrude>
					<coordinates>-76.70,67.216699999026261,0.00 </coordinates>
				</Point>
			</Placemark>
			<Placemark>
				<description>90179</description>
				<name>Prince Charles Island</name>
				<Style>
					<IconStyle>
						<color>ffc0c0c0</color>
					</IconStyle>
				</Style>
				<Point>
					<extrude>1</extrude>
					<coordinates>-76.19999989,67.783332999340445,0.00 </coordinates>
				</Point>
			</Placemark>
			<Placemark>
				<description>90180</description>
				<name>Poole Point</name>
				<Style>
					<IconStyle>
						<color>ffc0c0c0</color>
					</IconStyle>
				</Style>
				<Point>
					<extrude>1</extrude>
					<coordinates>-77.283299999834995,67.75,0.00 </coordinates>
				</Point>
			</Placemark>
			<Placemark>
				<description>90181</description>
				<name>Gibson Bay</name>
				<Style>
					<IconStyle>
						<color>ffc0c0c0</color>
					</IconStyle>
				</Style>
				<Point>
					<extrude>1</extrude>
					<coordinates>-76.00,65.266699998912884,0.00 </coordinates>
				</Point>
			</Placemark>
			<Placemark>
				<description>90182</description>
				<name>Cockram Strait</name>
				<Style>
					<IconStyle>
						<color>ffc0c0c0</color>
					</IconStyle>
				</Style>
				<Point>
					<extrude>1</extrude>
					<coordinates>-74.916699997557004,68.033300000462361,0.00 </coordinates>
				</Point>
			</Placemark>
			<Placemark>
				<description>90183</description>
				<name>Schooner Harbour</name>
				<Style>
					<IconStyle>
						<color>ffc0c0c0</color>
					</IconStyle>
				</Style>
				<Point>
					<extrude>1</extrude>
					<coordinates>-77.90,64.416699999268005,0.00 </coordinates>
				</Point>
			</Placemark>
			<Placemark>
				<description>90184</description>
				<name>King Charles Cape</name>
				<Style>
					<IconStyle>
						<color>ffc0c0c0</color>
					</IconStyle>
				</Style>
				<Point>
					<extrude>1</extrude>
					<coordinates>-77.35,64.233299997421241,0.00 </coordinates>
				</Point>
			</Placemark>
			<Placemark>
				<description>90185</description>
				<name>Ihalukpiuk Lake</name>
				<Style>
					<IconStyle>
						<color>ffc0c0c0</color>
					</IconStyle>
				</Style>
				<Point>
					<extrude>1</extrude>
					<coordinates>-76.766700000444004,64.3332999998443,0.00 </coordinates>
				</Point>
			</Placemark>
			<Placemark>
				<description>90186</description>
				<name>Okolli Island</name>
				<Style>
					<IconStyle>
						<color>ffc0c0c0</color>
					</IconStyle>
				</Style>
				<Point>
					<extrude>1</extrude>
					<coordinates>-76.616700002049996,64.166699998447882,0.00 </coordinates>
				</Point>
			</Placemark>
			<Placemark>
				<description>90187</description>
				<name>Kingnait Hill</name>
				<Style>
					<IconStyle>
						<color>ffc0c0c0</color>
					</IconStyle>
				</Style>
				<Point>
					<extrude>1</extrude>
					<coordinates>-76.566700000840001,64.216699999658914,0.00 </coordinates>
				</Point>
			</Placemark>
			<Placemark>
				<description>90188</description>
				<name>Sheep Island</name>
				<Style>
					<IconStyle>
						<color>ffc0c0c0</color>
					</IconStyle>
				</Style>
				<Point>
					<extrude>1</extrude>
					<coordinates>-76.55,64.233299997421241,0.00 </coordinates>
				</Point>
			</Placemark>
			<Placemark>
				<description>90189</description>
				<name>Cape Dorset</name>
				<Style>
					<IconStyle>
						<color>ffc0c0c0</color>
					</IconStyle>
				</Style>
				<Point>
					<extrude>1</extrude>
					<coordinates>-76.541700000234002,64.233299997421241,0.00 </coordinates>
				</Point>
			</Placemark>
			<Placemark>
				<description>90190</description>
				<name>Eegatuak Hill</name>
				<Style>
					<IconStyle>
						<color>ffc0c0c0</color>
					</IconStyle>
				</Style>
				<Point>
					<extrude>1</extrude>
					<coordinates>-76.483300001418982,64.183300001448217,0.00 </coordinates>
				</Point>
			</Placemark>
			<Placemark>
				<description>90191</description>
				<name>Parketuk Bay</name>
				<Style>
					<IconStyle>
						<color>ffc0c0c0</color>
					</IconStyle>
				</Style>
				<Point>
					<extrude>1</extrude>
					<coordinates>-76.516699999628997,64.283299998633268,0.00 </coordinates>
				</Point>
			</Placemark>
			<Placemark>
				<description>90192</description>
				<name>Beacon Island</name>
				<Style>
					<IconStyle>
						<color>ffc0c0c0</color>
					</IconStyle>
				</Style>
				<Point>
					<extrude>1</extrude>
					<coordinates>-76.45,64.20,0.00 </coordinates>
				</Point>
			</Placemark>
			<Placemark>
				<description>90193</description>
				<name>Neta Islands</name>
				<Style>
					<IconStyle>
						<color>ffc0c0c0</color>
					</IconStyle>
				</Style>
				<Point>
					<extrude>1</extrude>
					<coordinates>-76.30,64.25,0.00 </coordinates>
				</Point>
			</Placemark>
			<Placemark>
				<description>90194</description>
				<name>Shemia Islands</name>
				<Style>
					<IconStyle>
						<color>ffc0c0c0</color>
					</IconStyle>
				</Style>
				<Point>
					<extrude>1</extrude>
					<coordinates>-76.183299999393,64.30,0.00 </coordinates>
				</Point>
			</Placemark>
			<Placemark>
				<description>90195</description>
				<name>Iglukjuak Point</name>
				<Style>
					<IconStyle>
						<color>ffc0c0c0</color>
					</IconStyle>
				</Style>
				<Point>
					<extrude>1</extrude>
					<coordinates>-76.161099999735995,64.31110000018684,0.00 </coordinates>
				</Point>
			</Placemark>
			<Placemark>
				<description>90196</description>
				<name>Scarp Lake</name>
				<Style>
					<IconStyle>
						<color>ffc0c0c0</color>
					</IconStyle>
				</Style>
				<Point>
					<extrude>1</extrude>
					<coordinates>-76.70,64.85,0.00 </coordinates>
				</Point>
			</Placemark>
			<Placemark>
				<description>90197</description>
				<name>Shartowitok Bay</name>
				<Style>
					<IconStyle>
						<color>ffc0c0c0</color>
					</IconStyle>
				</Style>
				<Point>
					<extrude>1</extrude>
					<coordinates>-76.15,64.366699998055978,0.00 </coordinates>
				</Point>
			</Placemark>
			<Placemark>
				<description>90198</description>
				<name>Enukso Point</name>
				<Style>
					<IconStyle>
						<color>ffc0c0c0</color>
					</IconStyle>
				</Style>
				<Point>
					<extrude>1</extrude>
					<coordinates>-78.20,64.566699997664131,0.00 </coordinates>
				</Point>
			</Placemark>
			<Placemark>
				<description>90199</description>
				<name>Uningalik Lake</name>
				<Style>
					<IconStyle>
						<color>ffc0c0c0</color>
					</IconStyle>
				</Style>
				<Point>
					<extrude>1</extrude>
					<coordinates>-76.883300000627003,64.3332999998443,0.00 </coordinates>
				</Point>
			</Placemark>
			<Placemark>
				<description>90200</description>
				<name>Puvutaktuk Lake</name>
				<Style>
					<IconStyle>
						<color>ffc0c0c0</color>
					</IconStyle>
				</Style>
				<Point>
					<extrude>1</extrude>
					<coordinates>-76.683300001022999,64.316699996843965,0.00 </coordinates>
				</Point>
			</Placemark>
			<Placemark>
				<description>90201</description>
				<name>Mallik Island</name>
				<Style>
					<IconStyle>
						<color>ffc0c0c0</color>
					</IconStyle>
				</Style>
				<Point>
					<extrude>1</extrude>
					<coordinates>-76.63329999981201,64.233299997421256,0.00 </coordinates>
				</Point>
			</Placemark>
			<Placemark>
				<description>90202</description>
				<name>Tellik Inlet</name>
				<Style>
					<IconStyle>
						<color>ffc0c0c0</color>
					</IconStyle>
				</Style>
				<Point>
					<extrude>1</extrude>
					<coordinates>-76.583299998601007,64.266700000870927,0.00 </coordinates>
				</Point>
			</Placemark>
			<Placemark>
				<description>90203</description>
				<name>Cape Dorset</name>
				<Style>
					<IconStyle>
						<color>ffc0c0c0</color>
					</IconStyle>
				</Style>
				<Point>
					<extrude>1</extrude>
					<coordinates>-76.483300001418982,64.177800000896113,0.00 </coordinates>
				</Point>
			</Placemark>
			<Placemark>
				<description>90204</description>
				<name>Nascopie Reefs</name>
				<Style>
					<IconStyle>
						<color>ffc0c0c0</color>
					</IconStyle>
				</Style>
				<Point>
					<extrude>1</extrude>
					<coordinates>-76.433300000208007,64.20,0.00 </coordinates>
				</Point>
			</Placemark>
			<Placemark>
				<description>90205</description>
				<name>Dorset Island</name>
				<Style>
					<IconStyle>
						<color>ffc0c0c0</color>
					</IconStyle>
				</Style>
				<Point>
					<extrude>1</extrude>
					<coordinates>-76.533299997390984,64.20,0.00 </coordinates>
				</Point>
			</Placemark>
			<Placemark>
				<description>90206</description>
				<name>Dunne River</name>
				<Style>
					<IconStyle>
						<color>ffc0c0c0</color>
					</IconStyle>
				</Style>
				<Point>
					<extrude>1</extrude>
					<coordinates>-78.05,64.9833,0.00 </coordinates>
				</Point>
			</Placemark>
			<Placemark>
				<description>90207</description>
				<name>Mill Island</name>
				<Style>
					<IconStyle>
						<color>ffc0c0c0</color>
					</IconStyle>
				</Style>
				<Point>
					<extrude>1</extrude>
					<coordinates>-77.78330000146498,63.975,0.00 </coordinates>
				</Point>
			</Placemark>
			<Placemark>
				<description>90208</description>
				<name>Tatigak River</name>
				<Style>
					<IconStyle>
						<color>ffc0c0c0</color>
					</IconStyle>
				</Style>
				<Point>
					<extrude>1</extrude>
					<coordinates>-76.933300001838006,70.016699998790912,0.00 </coordinates>
				</Point>
			</Placemark>
			<Placemark>
				<description>90209</description>
				<name>Tessikakjuak Lake</name>
				<Style>
					<IconStyle>
						<color>ffc0c0c0</color>
					</IconStyle>
				</Style>
				<Point>
					<extrude>1</extrude>
					<coordinates>-76.766700000444004,64.30,0.00 </coordinates>
				</Point>
			</Placemark>
			<Placemark>
				<description>90210</description>
				<name>Cape Queen</name>
				<Style>
					<IconStyle>
						<color>ffc0c0c0</color>
					</IconStyle>
				</Style>
				<Point>
					<extrude>1</extrude>
					<coordinates>-78.30,64.70,0.00 </coordinates>
				</Point>
			</Placemark>
			<Placemark>
				<description>90211</description>
				<name>West Inlet</name>
				<Style>
					<IconStyle>
						<color>ffc0c0c0</color>
					</IconStyle>
				</Style>
				<Point>
					<extrude>1</extrude>
					<coordinates>-76.583299998601007,64.183300001448217,0.00 </coordinates>
				</Point>
			</Placemark>
			<Placemark>
				<description>90212</description>
				<name>Trinity Islands</name>
				<Style>
					<IconStyle>
						<color>ffc0c0c0</color>
					</IconStyle>
				</Style>
				<Point>
					<extrude>1</extrude>
					<coordinates>-78.116700001701005,64.455599998030834,0.00 </coordinates>
				</Point>
			</Placemark>
			<Placemark>
				<description>90213</description>
				<name>Tellik Bay</name>
				<Style>
					<IconStyle>
						<color>ffc0c0c0</color>
					</IconStyle>
				</Style>
				<Point>
					<extrude>1</extrude>
					<coordinates>-76.60,64.30,0.00 </coordinates>
				</Point>
			</Placemark>
			<Placemark>
				<description>90214</description>
				<name>Cape Enauolik</name>
				<Style>
					<IconStyle>
						<color>ffc0c0c0</color>
					</IconStyle>
				</Style>
				<Point>
					<extrude>1</extrude>
					<coordinates>-78.15,64.92359999931459,0.00 </coordinates>
				</Point>
			</Placemark>
			<Placemark>
				<description>90215</description>
				<name>Putnam Island</name>
				<Style>
					<IconStyle>
						<color>ffc0c0c0</color>
					</IconStyle>
				</Style>
				<Point>
					<extrude>1</extrude>
					<coordinates>-77.533300000650001,63.983300001840149,0.00 </coordinates>
				</Point>
			</Placemark>
			<Placemark>
				<description>90216</description>
				<name>Harkin Bay</name>
				<Style>
					<IconStyle>
						<color>ffc0c0c0</color>
					</IconStyle>
				</Style>
				<Point>
					<extrude>1</extrude>
					<coordinates>-78.116700001701005,64.833300001484702,0.00 </coordinates>
				</Point>
			</Placemark>
			<Placemark>
				<description>90217</description>
				<name>Kingnait Range</name>
				<Style>
					<IconStyle>
						<color>ffc0c0c0</color>
					</IconStyle>
				</Style>
				<Point>
					<extrude>1</extrude>
					<coordinates>-77.16666689,64.499999889267755,0.00 </coordinates>
				</Point>
			</Placemark>
			<Placemark>
				<description>90218</description>
				<name>Nuleoktolik Point</name>
				<Style>
					<IconStyle>
						<color>ffc0c0c0</color>
					</IconStyle>
				</Style>
				<Point>
					<extrude>1</extrude>
					<coordinates>-76.30,64.266700000870927,0.00 </coordinates>
				</Point>
			</Placemark>
			<Placemark>
				<description>90219</description>
				<name>Lonebutte Bay</name>
				<Style>
					<IconStyle>
						<color>ffc0c0c0</color>
					</IconStyle>
				</Style>
				<Point>
					<extrude>1</extrude>
					<coordinates>-78.033300002280001,64.466700000479051,0.00 </coordinates>
				</Point>
			</Placemark>
			<Placemark>
				<description>90220</description>
				<name>Apalooktook Point</name>
				<Style>
					<IconStyle>
						<color>ffc0c0c0</color>
					</IconStyle>
				</Style>
				<Point>
					<extrude>1</extrude>
					<coordinates>-76.50,64.233299997421241,0.00 </coordinates>
				</Point>
			</Placemark>
			<Placemark>
				<description>90221</description>
				<name>Kidlapait Range</name>
				<Style>
					<IconStyle>
						<color>ffc0c0c0</color>
					</IconStyle>
				</Style>
				<Point>
					<extrude>1</extrude>
					<coordinates>-77.50,64.75,0.00 </coordinates>
				</Point>
			</Placemark>
			<Placemark>
				<description>90222</description>
				<name>Green Point</name>
				<Style>
					<IconStyle>
						<color>ffc0c0c0</color>
					</IconStyle>
				</Style>
				<Point>
					<extrude>1</extrude>
					<coordinates>-78.211100002226999,64.6610999981921,0.00 </coordinates>
				</Point>
			</Placemark>
			<Placemark>
				<description>90223</description>
				<name>Negus Bay</name>
				<Style>
					<IconStyle>
						<color>ffc0c0c0</color>
					</IconStyle>
				</Style>
				<Point>
					<extrude>1</extrude>
					<coordinates>-76.366700001235998,64.283299998633268,0.00 </coordinates>
				</Point>
			</Placemark>
			<Placemark>
				<description>90224</description>
				<name>Pudla Inlet</name>
				<Style>
					<IconStyle>
						<color>ffc0c0c0</color>
					</IconStyle>
				</Style>
				<Point>
					<extrude>1</extrude>
					<coordinates>-76.25,64.3332999998443,0.00 </coordinates>
				</Point>
			</Placemark>
			<Placemark>
				<description>90225</description>
				<name>Lloyd Point</name>
				<Style>
					<IconStyle>
						<color>ffc0c0c0</color>
					</IconStyle>
				</Style>
				<Point>
					<extrude>1</extrude>
					<coordinates>-78.031899999187019,64.437500001070447,0.00 </coordinates>
				</Point>
			</Placemark>
			<Placemark>
				<description>90226</description>
				<name>Hurin Throughlet</name>
				<Style>
					<IconStyle>
						<color>ffc0c0c0</color>
					</IconStyle>
				</Style>
				<Point>
					<extrude>1</extrude>
					<coordinates>-77.966699998069018,63.991699999445331,0.00 </coordinates>
				</Point>
			</Placemark>
			<Placemark>
				<description>90227</description>
				<name>Morrissey Harbour</name>
				<Style>
					<IconStyle>
						<color>ffc0c0c0</color>
					</IconStyle>
				</Style>
				<Point>
					<extrude>1</extrude>
					<coordinates>-77.78330000146498,64.03329999781316,0.00 </coordinates>
				</Point>
			</Placemark>
			<Placemark>
				<description>90228</description>
				<name>Cape Dorset Harbour</name>
				<Style>
					<IconStyle>
						<color>ffc0c0c0</color>
					</IconStyle>
				</Style>
				<Point>
					<extrude>1</extrude>
					<coordinates>-76.551399999588995,64.237500001462308,0.00 </coordinates>
				</Point>
			</Placemark>
			<Placemark>
				<description>90229</description>
				<name>Sakkiak Island</name>
				<Style>
					<IconStyle>
						<color>ffc0c0c0</color>
					</IconStyle>
				</Style>
				<Point>
					<extrude>1</extrude>
					<coordinates>-76.55,64.15,0.00 </coordinates>
				</Point>
			</Placemark>
			<Placemark>
				<description>90230</description>
				<name>Kivani Lake</name>
				<Style>
					<IconStyle>
						<color>ffc0c0c0</color>
					</IconStyle>
				</Style>
				<Point>
					<extrude>1</extrude>
					<coordinates>-76.666699998023006,64.783300000273655,0.00 </coordinates>
				</Point>
			</Placemark>
			<Placemark>
				<description>90231</description>
				<name>Shuke Islands</name>
				<Style>
					<IconStyle>
						<color>ffc0c0c0</color>
					</IconStyle>
				</Style>
				<Point>
					<extrude>1</extrude>
					<coordinates>-77.15,64.216699999658914,0.00 </coordinates>
				</Point>
			</Placemark>
			<Placemark>
				<description>90232</description>
				<name>Kommanik River</name>
				<Style>
					<IconStyle>
						<color>ffc0c0c0</color>
					</IconStyle>
				</Style>
				<Point>
					<extrude>1</extrude>
					<coordinates>-75.90,65.266699998912884,0.00 </coordinates>
				</Point>
			</Placemark>
			<Placemark>
				<description>90233</description>
				<name>Shappa Lake</name>
				<Style>
					<IconStyle>
						<color>ffc0c0c0</color>
					</IconStyle>
				</Style>
				<Point>
					<extrude>1</extrude>
					<coordinates>-75.50,65.183299999490117,0.00 </coordinates>
				</Point>
			</Placemark>
			<Placemark>
				<description>90234</description>
				<name>Epowak Lake</name>
				<Style>
					<IconStyle>
						<color>ffc0c0c0</color>
					</IconStyle>
				</Style>
				<Point>
					<extrude>1</extrude>
					<coordinates>-75.25,65.083299997066987,0.00 </coordinates>
				</Point>
			</Placemark>
			<Placemark>
				<description>90235</description>
				<name>Cory Bay</name>
				<Style>
					<IconStyle>
						<color>ffc0c0c0</color>
					</IconStyle>
				</Style>
				<Point>
					<extrude>1</extrude>
					<coordinates>-74.49999989,65.416666999287131,0.00 </coordinates>
				</Point>
			</Placemark>
			<Placemark>
				<description>90236</description>
				<name>Keeka Hill</name>
				<Style>
					<IconStyle>
						<color>ffc0c0c0</color>
					</IconStyle>
				</Style>
				<Point>
					<extrude>1</extrude>
					<coordinates>-74.083333,65.499999889288915,0.00 </coordinates>
				</Point>
			</Placemark>
			<Placemark>
				<description>90237</description>
				<name>Keeka Lake</name>
				<Style>
					<IconStyle>
						<color>ffc0c0c0</color>
					</IconStyle>
				</Style>
				<Point>
					<extrude>1</extrude>
					<coordinates>-74.333300001745002,65.083299997066987,0.00 </coordinates>
				</Point>
			</Placemark>
			<Placemark>
				<description>90238</description>
				<name>Gale Point</name>
				<Style>
					<IconStyle>
						<color>ffc0c0c0</color>
					</IconStyle>
				</Style>
				<Point>
					<extrude>1</extrude>
					<coordinates>-75.466700000396997,78.216699998507451,0.00 </coordinates>
				</Point>
			</Placemark>
			<Placemark>
				<description>90239</description>
				<name>Ungenuk Lake</name>
				<Style>
					<IconStyle>
						<color>ffc0c0c0</color>
					</IconStyle>
				</Style>
				<Point>
					<extrude>1</extrude>
					<coordinates>-75.6667,65.016699998092577,0.00 </coordinates>
				</Point>
			</Placemark>
			<Placemark>
				<description>90240</description>
				<name>Viola Bay</name>
				<Style>
					<IconStyle>
						<color>ffc0c0c0</color>
					</IconStyle>
				</Style>
				<Point>
					<extrude>1</extrude>
					<coordinates>-75.75,65.316700000124953,0.00 </coordinates>
				</Point>
			</Placemark>
			<Placemark>
				<description>90241</description>
				<name>Cape Alberta</name>
				<Style>
					<IconStyle>
						<color>ffc0c0c0</color>
					</IconStyle>
				</Style>
				<Point>
					<extrude>1</extrude>
					<coordinates>-74.20,65.516699999733277,0.00 </coordinates>
				</Point>
			</Placemark>
			<Placemark>
				<description>90242</description>
				<name>Cape Ketoria</name>
				<Style>
					<IconStyle>
						<color>ffc0c0c0</color>
					</IconStyle>
				</Style>
				<Point>
					<extrude>1</extrude>
					<coordinates>-75.216699999582005,65.433300000310467,0.00 </coordinates>
				</Point>
			</Placemark>
			<Placemark>
				<description>90243</description>
				<name>Kavivau Lake</name>
				<Style>
					<IconStyle>
						<color>ffc0c0c0</color>
					</IconStyle>
				</Style>
				<Point>
					<extrude>1</extrude>
					<coordinates>-75.75,65.194399996699346,0.00 </coordinates>
				</Point>
			</Placemark>
			<Placemark>
				<description>90244</description>
				<name>Garnet Bay</name>
				<Style>
					<IconStyle>
						<color>ffc0c0c0</color>
					</IconStyle>
				</Style>
				<Point>
					<extrude>1</extrude>
					<coordinates>-75.366667,65.299999889284578,0.00 </coordinates>
				</Point>
			</Placemark>
			<Placemark>
				<description>90245</description>
				<name>Ashuna Lake</name>
				<Style>
					<IconStyle>
						<color>ffc0c0c0</color>
					</IconStyle>
				</Style>
				<Point>
					<extrude>1</extrude>
					<coordinates>-75.65,65.133299998278048,0.00 </coordinates>
				</Point>
			</Placemark>
			<Placemark>
				<description>90246</description>
				<name>Tessioyaluk Inlet</name>
				<Style>
					<IconStyle>
						<color>ffc0c0c0</color>
					</IconStyle>
				</Style>
				<Point>
					<extrude>1</extrude>
					<coordinates>-73.883300001326006,64.370800000754087,0.00 </coordinates>
				</Point>
			</Placemark>
			<Placemark>
				<description>90247</description>
				<name>Tinitonito Bay</name>
				<Style>
					<IconStyle>
						<color>ffc0c0c0</color>
					</IconStyle>
				</Style>
				<Point>
					<extrude>1</extrude>
					<coordinates>-73.683300001720994,64.55,0.00 </coordinates>
				</Point>
			</Placemark>
			<Placemark>
				<description>90248</description>
				<name>Amadjuak Bay</name>
				<Style>
					<IconStyle>
						<color>ffc0c0c0</color>
					</IconStyle>
				</Style>
				<Point>
					<extrude>1</extrude>
					<coordinates>-72.666700000700004,63.983300001840149,0.00 </coordinates>
				</Point>
			</Placemark>
			<Placemark>
				<description>90249</description>
				<name>Boas Lake</name>
				<Style>
					<IconStyle>
						<color>ffc0c0c0</color>
					</IconStyle>
				</Style>
				<Point>
					<extrude>1</extrude>
					<coordinates>-72.666700000700004,64.133300000236218,0.00 </coordinates>
				</Point>
			</Placemark>
			<Placemark>
				<description>90250</description>
				<name>Stevenson Lake</name>
				<Style>
					<IconStyle>
						<color>ffc0c0c0</color>
					</IconStyle>
				</Style>
				<Point>
					<extrude>1</extrude>
					<coordinates>-72.633300002490003,64.20,0.00 </coordinates>
				</Point>
			</Placemark>
			<Placemark>
				<description>90251</description>
				<name>McGee Lake</name>
				<Style>
					<IconStyle>
						<color>ffc0c0c0</color>
					</IconStyle>
				</Style>
				<Point>
					<extrude>1</extrude>
					<coordinates>-72.466700001096001,64.383300001056341,0.00 </coordinates>
				</Point>
			</Placemark>
			<Placemark>
				<description>90252</description>
				<name>Mount Mingo</name>
				<Style>
					<IconStyle>
						<color>ffc0c0c0</color>
					</IconStyle>
				</Style>
				<Point>
					<extrude>1</extrude>
					<coordinates>-72.25,64.466700000479051,0.00 </coordinates>
				</Point>
			</Placemark>
			<Placemark>
				<description>90253</description>
				<name>Mingo Lake</name>
				<Style>
					<IconStyle>
						<color>ffc0c0c0</color>
					</IconStyle>
				</Style>
				<Point>
					<extrude>1</extrude>
					<coordinates>-72.166699999070019,64.58330000066448,0.00 </coordinates>
				</Point>
			</Placemark>
			<Placemark>
				<description>90254</description>
				<name>Korok Inlet</name>
				<Style>
					<IconStyle>
						<color>ffc0c0c0</color>
					</IconStyle>
				</Style>
				<Point>
					<extrude>1</extrude>
					<coordinates>-73.35,64.3332999998443,0.00 </coordinates>
				</Point>
			</Placemark>
			<Placemark>
				<description>90255</description>
				<name>Gilbert Lake</name>
				<Style>
					<IconStyle>
						<color>ffc0c0c0</color>
					</IconStyle>
				</Style>
				<Point>
					<extrude>1</extrude>
					<coordinates>-72.50,64.35,0.00 </coordinates>
				</Point>
			</Placemark>
			<Placemark>
				<description>90256</description>
				<name>Scott Island</name>
				<Style>
					<IconStyle>
						<color>ffc0c0c0</color>
					</IconStyle>
				</Style>
				<Point>
					<extrude>1</extrude>
					<coordinates>-73.516700000328001,64.30,0.00 </coordinates>
				</Point>
			</Placemark>
			<Placemark>
				<description>90257</description>
				<name>Keltie Inlet</name>
				<Style>
					<IconStyle>
						<color>ffc0c0c0</color>
					</IconStyle>
				</Style>
				<Point>
					<extrude>1</extrude>
					<coordinates>-73.333299998485003,64.466700000479051,0.00 </coordinates>
				</Point>
			</Placemark>
			<Placemark>
				<description>90258</description>
				<name>Amadjuak</name>
				<Style>
					<IconStyle>
						<color>ffc0c0c0</color>
					</IconStyle>
				</Style>
				<Point>
					<extrude>1</extrude>
					<coordinates>-72.65,64.016700000050818,0.00 </coordinates>
				</Point>
			</Placemark>
			<Placemark>
				<description>90259</description>
				<name>Chamberlain Island</name>
				<Style>
					<IconStyle>
						<color>ffc0c0c0</color>
					</IconStyle>
				</Style>
				<Point>
					<extrude>1</extrude>
					<coordinates>-73.70,64.10,0.00 </coordinates>
				</Point>
			</Placemark>
			<Placemark>
				<description>90260</description>
				<name>Amadjuak Lake</name>
				<Style>
					<IconStyle>
						<color>ffc0c0c0</color>
					</IconStyle>
				</Style>
				<Point>
					<extrude>1</extrude>
					<coordinates>-71.133299997600005,64.916700000907468,0.00 </coordinates>
				</Point>
			</Placemark>
			<Placemark>
				<description>90261</description>
				<name>Jubilee Island</name>
				<Style>
					<IconStyle>
						<color>ffc0c0c0</color>
					</IconStyle>
				</Style>
				<Point>
					<extrude>1</extrude>
					<coordinates>-73.75,64.3332999998443,0.00 </coordinates>
				</Point>
			</Placemark>
			<Placemark>
				<description>90262</description>
				<name>Hobart Island</name>
				<Style>
					<IconStyle>
						<color>ffc0c0c0</color>
					</IconStyle>
				</Style>
				<Point>
					<extrude>1</extrude>
					<coordinates>-73.333299998485003,64.183300001448217,0.00 </coordinates>
				</Point>
			</Placemark>
			<Placemark>
				<description>90263</description>
				<name>Maskell Inlet</name>
				<Style>
					<IconStyle>
						<color>ffc0c0c0</color>
					</IconStyle>
				</Style>
				<Point>
					<extrude>1</extrude>
					<coordinates>-78.50,82.866700001235941,0.00 </coordinates>
				</Point>
			</Placemark>
			<Placemark>
				<description>90264</description>
				<name>Bromley Island</name>
				<Style>
					<IconStyle>
						<color>ffc0c0c0</color>
					</IconStyle>
				</Style>
				<Point>
					<extrude>1</extrude>
					<coordinates>-78.30,82.933300000211048,0.00 </coordinates>
				</Point>
			</Placemark>
			<Placemark>
				<description>90265</description>
				<name>Mount Vanier</name>
				<Style>
					<IconStyle>
						<color>ffc0c0c0</color>
					</IconStyle>
				</Style>
				<Point>
					<extrude>1</extrude>
					<coordinates>-77.75,82.083300000556065,0.00 </coordinates>
				</Point>
			</Placemark>
			<Placemark>
				<description>90266</description>
				<name>Cape Discovery</name>
				<Style>
					<IconStyle>
						<color>ffc0c0c0</color>
					</IconStyle>
				</Style>
				<Point>
					<extrude>1</extrude>
					<coordinates>-77.40,83.00,0.00 </coordinates>
				</Point>
			</Placemark>
			<Placemark>
				<description>90267</description>
				<name>Crash Point</name>
				<Style>
					<IconStyle>
						<color>ffc0c0c0</color>
					</IconStyle>
				</Style>
				<Point>
					<extrude>1</extrude>
					<coordinates>-76.216699997603001,82.70,0.00 </coordinates>
				</Point>
			</Placemark>
			<Placemark>
				<description>90268</description>
				<name>Marvin Peninsula</name>
				<Style>
					<IconStyle>
						<color>ffc0c0c0</color>
					</IconStyle>
				</Style>
				<Point>
					<extrude>1</extrude>
					<coordinates>-75.00,82.833299997785872,0.00 </coordinates>
				</Point>
			</Placemark>
			<Placemark>
				<description>90269</description>
				<name>Disraeli Fiord</name>
				<Style>
					<IconStyle>
						<color>ffc0c0c0</color>
					</IconStyle>
				</Style>
				<Point>
					<extrude>1</extrude>
					<coordinates>-73.35,82.8167,0.00 </coordinates>
				</Point>
			</Placemark>
			<Placemark>
				<description>90270</description>
				<name>Cranstone Peninsula</name>
				<Style>
					<IconStyle>
						<color>ffc0c0c0</color>
					</IconStyle>
				</Style>
				<Point>
					<extrude>1</extrude>
					<coordinates>-72.333300000464007,82.916699997209534,0.00 </coordinates>
				</Point>
			</Placemark>
			<Placemark>
				<description>90271</description>
				<name>Ward Hunt Island</name>
				<Style>
					<IconStyle>
						<color>ffc0c0c0</color>
					</IconStyle>
				</Style>
				<Point>
					<extrude>1</extrude>
					<coordinates>-74.166700000351,83.10,0.00 </coordinates>
				</Point>
			</Placemark>
			<Placemark>
				<description>90272</description>
				<name>Capstan Peak</name>
				<Style>
					<IconStyle>
						<color>ffc0c0c0</color>
					</IconStyle>
				</Style>
				<Point>
					<extrude>1</extrude>
					<coordinates>-78.25,82.283300000167387,0.00 </coordinates>
				</Point>
			</Placemark>
			<Placemark>
				<description>90273</description>
				<name>Taconite Inlet</name>
				<Style>
					<IconStyle>
						<color>ffc0c0c0</color>
					</IconStyle>
				</Style>
				<Point>
					<extrude>1</extrude>
					<coordinates>-78.216699998883996,82.85,0.00 </coordinates>
				</Point>
			</Placemark>
			<Placemark>
				<description>90274</description>
				<name>Egingwah Bay</name>
				<Style>
					<IconStyle>
						<color>ffc0c0c0</color>
					</IconStyle>
				</Style>
				<Point>
					<extrude>1</extrude>
					<coordinates>-76.933300001838006,82.769399998415821,0.00 </coordinates>
				</Point>
			</Placemark>
			<Placemark>
				<description>90275</description>
				<name>M&apos;Clintock Inlet</name>
				<Style>
					<IconStyle>
						<color>ffc0c0c0</color>
					</IconStyle>
				</Style>
				<Point>
					<extrude>1</extrude>
					<coordinates>-76.50,82.75,0.00 </coordinates>
				</Point>
			</Placemark>
			<Placemark>
				<description>90276</description>
				<name>Mount Whisler</name>
				<Style>
					<IconStyle>
						<color>ffc0c0c0</color>
					</IconStyle>
				</Style>
				<Point>
					<extrude>1</extrude>
					<coordinates>-74.533300001349005,82.016700001581967,0.00 </coordinates>
				</Point>
			</Placemark>
			<Placemark>
				<description>90277</description>
				<name>Ward Hunt Ice Shelf</name>
				<Style>
					<IconStyle>
						<color>ffc0c0c0</color>
					</IconStyle>
				</Style>
				<Point>
					<extrude>1</extrude>
					<coordinates>-73.505,83.12,0.00 </coordinates>
				</Point>
			</Placemark>
			<Placemark>
				<description>90278</description>
				<name>Cape Albert Edward</name>
				<Style>
					<IconStyle>
						<color>ffc0c0c0</color>
					</IconStyle>
				</Style>
				<Point>
					<extrude>1</extrude>
					<coordinates>-72.60,83.116700002058906,0.00 </coordinates>
				</Point>
			</Placemark>
			<Placemark>
				<description>90279</description>
				<name>Ooblooyah Creek</name>
				<Style>
					<IconStyle>
						<color>ffc0c0c0</color>
					</IconStyle>
				</Style>
				<Point>
					<extrude>1</extrude>
					<coordinates>-76.63329999981201,82.666700001625571,0.00 </coordinates>
				</Point>
			</Placemark>
			<Placemark>
				<description>90280</description>
				<name>Disraeli Creek</name>
				<Style>
					<IconStyle>
						<color>ffc0c0c0</color>
					</IconStyle>
				</Style>
				<Point>
					<extrude>1</extrude>
					<coordinates>-74.10,82.983300001423657,0.00 </coordinates>
				</Point>
			</Placemark>
			<Placemark>
				<description>90281</description>
				<name>Arrowhead Mountain</name>
				<Style>
					<IconStyle>
						<color>ffc0c0c0</color>
					</IconStyle>
				</Style>
				<Point>
					<extrude>1</extrude>
					<coordinates>-72.216700000280994,82.216700001192294,0.00 </coordinates>
				</Point>
			</Placemark>
			<Placemark>
				<description>90282</description>
				<name>Mount Oxford</name>
				<Style>
					<IconStyle>
						<color>ffc0c0c0</color>
					</IconStyle>
				</Style>
				<Point>
					<extrude>1</extrude>
					<coordinates>-73.166700002330003,82.1667,0.00 </coordinates>
				</Point>
			</Placemark>
			<Placemark>
				<description>90283</description>
				<name>Bethel Peak</name>
				<Style>
					<IconStyle>
						<color>ffc0c0c0</color>
					</IconStyle>
				</Style>
				<Point>
					<extrude>1</extrude>
					<coordinates>-78.916700000117999,82.90,0.00 </coordinates>
				</Point>
			</Placemark>
			<Placemark>
				<description>90284</description>
				<name>Marine Glacier</name>
				<Style>
					<IconStyle>
						<color>ffc0c0c0</color>
					</IconStyle>
				</Style>
				<Point>
					<extrude>1</extrude>
					<coordinates>-78.75,82.283300000167387,0.00 </coordinates>
				</Point>
			</Placemark>
			<Placemark>
				<description>90285</description>
				<name>Rambow Hill</name>
				<Style>
					<IconStyle>
						<color>ffc0c0c0</color>
					</IconStyle>
				</Style>
				<Point>
					<extrude>1</extrude>
					<coordinates>-75.133300000161,83.033299997397236,0.00 </coordinates>
				</Point>
			</Placemark>
			<Placemark>
				<description>90286</description>
				<name>Walker Hill</name>
				<Style>
					<IconStyle>
						<color>ffc0c0c0</color>
					</IconStyle>
				</Style>
				<Point>
					<extrude>1</extrude>
					<coordinates>-74.266699997534005,83.10,0.00 </coordinates>
				</Point>
			</Placemark>
			<Placemark>
				<description>90287</description>
				<name>Taconite River</name>
				<Style>
					<IconStyle>
						<color>ffc0c0c0</color>
					</IconStyle>
				</Style>
				<Point>
					<extrude>1</extrude>
					<coordinates>-78.00,82.8167,0.00 </coordinates>
				</Point>
			</Placemark>
			<Placemark>
				<description>90288</description>
				<name>Thores Lake</name>
				<Style>
					<IconStyle>
						<color>ffc0c0c0</color>
					</IconStyle>
				</Style>
				<Point>
					<extrude>1</extrude>
					<coordinates>-73.683300001720994,82.65,0.00 </coordinates>
				</Point>
			</Placemark>
			<Placemark>
				<description>90289</description>
				<name>Commonwealth Mountain</name>
				<Style>
					<IconStyle>
						<color>ffc0c0c0</color>
					</IconStyle>
				</Style>
				<Point>
					<extrude>1</extrude>
					<coordinates>-76.75,82.40,0.00 </coordinates>
				</Point>
			</Placemark>
			<Placemark>
				<description>90290</description>
				<name>British Empire Range</name>
				<Style>
					<IconStyle>
						<color>ffc0c0c0</color>
					</IconStyle>
				</Style>
				<Point>
					<extrude>1</extrude>
					<coordinates>-77.50,82.35,0.00 </coordinates>
				</Point>
			</Placemark>
			<Placemark>
				<description>90291</description>
				<name>&#206;le d&apos;Ellesmere</name>
				<Style>
					<IconStyle>
						<color>ffc0c0c0</color>
					</IconStyle>
				</Style>
				<Point>
					<extrude>1</extrude>
					<coordinates>-78.00,79.833332999672734,0.00 </coordinates>
				</Point>
			</Placemark>
			<Placemark>
				<description>90292</description>
				<name>Challenger Mountains</name>
				<Style>
					<IconStyle>
						<color>ffc0c0c0</color>
					</IconStyle>
				</Style>
				<Point>
					<extrude>1</extrude>
					<coordinates>-76.20,82.683299999388097,0.00 </coordinates>
				</Point>
			</Placemark>
			<Placemark>
				<description>90293</description>
				<name>Cape Alexandra</name>
				<Style>
					<IconStyle>
						<color>ffc0c0c0</color>
					</IconStyle>
				</Style>
				<Point>
					<extrude>1</extrude>
					<coordinates>-74.65,83.05,0.00 </coordinates>
				</Point>
			</Placemark>
			<Placemark>
				<description>90294</description>
				<name>Quttinirpaaq National Park of Canada</name>
				<Style>
					<IconStyle>
						<color>ffc0c0c0</color>
					</IconStyle>
				</Style>
				<Point>
					<extrude>1</extrude>
					<coordinates>-72.216667001776003,82.216666997448286,0.00 </coordinates>
				</Point>
			</Placemark>
			<Placemark>
				<description>90295</description>
				<name>Imina Inlet</name>
				<Style>
					<IconStyle>
						<color>ffc0c0c0</color>
					</IconStyle>
				</Style>
				<Point>
					<extrude>1</extrude>
					<coordinates>-88.95,81.90,0.00 </coordinates>
				</Point>
			</Placemark>
			<Placemark>
				<description>90296</description>
				<name>Oakley River</name>
				<Style>
					<IconStyle>
						<color>ffc0c0c0</color>
					</IconStyle>
				</Style>
				<Point>
					<extrude>1</extrude>
					<coordinates>-78.466699999699003,82.833299997785872,0.00 </coordinates>
				</Point>
			</Placemark>
			<Placemark>
				<description>90297</description>
				<name>Marvin Islands</name>
				<Style>
					<IconStyle>
						<color>ffc0c0c0</color>
					</IconStyle>
				</Style>
				<Point>
					<extrude>1</extrude>
					<coordinates>-73.616699997509997,82.983300001423657,0.00 </coordinates>
				</Point>
			</Placemark>
			<Placemark>
				<description>90298</description>
				<name>Parc national du Canada Quttinirpaaq</name>
				<Style>
					<IconStyle>
						<color>ffc0c0c0</color>
					</IconStyle>
				</Style>
				<Point>
					<extrude>1</extrude>
					<coordinates>-72.216666608873993,82.216666609785293,0.00 </coordinates>
				</Point>
			</Placemark>
			<Placemark>
				<description>90299</description>
				<name>Harley Ridge</name>
				<Style>
					<IconStyle>
						<color>ffc0c0c0</color>
					</IconStyle>
				</Style>
				<Point>
					<extrude>1</extrude>
					<coordinates>-75.495799998462005,82.493100000476048,0.00 </coordinates>
				</Point>
			</Placemark>
			<Placemark>
				<description>90300</description>
				<name>Borup Point</name>
				<Style>
					<IconStyle>
						<color>ffc0c0c0</color>
					</IconStyle>
				</Style>
				<Point>
					<extrude>1</extrude>
					<coordinates>-77.733300000254999,82.933300000211048,0.00 </coordinates>
				</Point>
			</Placemark>
			<Placemark>
				<description>90301</description>
				<name>Quarterdeck Peak</name>
				<Style>
					<IconStyle>
						<color>ffc0c0c0</color>
					</IconStyle>
				</Style>
				<Point>
					<extrude>1</extrude>
					<coordinates>-78.916700000117999,82.30,0.00 </coordinates>
				</Point>
			</Placemark>
			<Placemark>
				<description>90302</description>
				<name>Commando Peak</name>
				<Style>
					<IconStyle>
						<color>ffc0c0c0</color>
					</IconStyle>
				</Style>
				<Point>
					<extrude>1</extrude>
					<coordinates>-79.166700000933005,82.266699997165873,0.00 </coordinates>
				</Point>
			</Placemark>
			<Placemark>
				<description>90303</description>
				<name>Cape Richards</name>
				<Style>
					<IconStyle>
						<color>ffc0c0c0</color>
					</IconStyle>
				</Style>
				<Point>
					<extrude>1</extrude>
					<coordinates>-79.283300001116004,82.983300001423657,0.00 </coordinates>
				</Point>
			</Placemark>
			<Placemark>
				<description>90304</description>
				<name>Murphy Point</name>
				<Style>
					<IconStyle>
						<color>ffc0c0c0</color>
					</IconStyle>
				</Style>
				<Point>
					<extrude>1</extrude>
					<coordinates>-77.083300000231006,82.854200000933545,0.00 </coordinates>
				</Point>
			</Placemark>
			<Placemark>
				<description>90305</description>
				<name>Thores River</name>
				<Style>
					<IconStyle>
						<color>ffc0c0c0</color>
					</IconStyle>
				</Style>
				<Point>
					<extrude>1</extrude>
					<coordinates>-72.683299998462005,82.60,0.00 </coordinates>
				</Point>
			</Placemark>
			<Placemark>
				<description>90306</description>
				<name>Ellesmere Island</name>
				<Style>
					<IconStyle>
						<color>ffc0c0c0</color>
					</IconStyle>
				</Style>
				<Point>
					<extrude>1</extrude>
					<coordinates>-78.00,79.833299998390771,0.00 </coordinates>
				</Point>
			</Placemark>
			<Placemark>
				<description>90307</description>
				<name>Bromley Peak</name>
				<Style>
					<IconStyle>
						<color>ffc0c0c0</color>
					</IconStyle>
				</Style>
				<Point>
					<extrude>1</extrude>
					<coordinates>-78.25,82.95,0.00 </coordinates>
				</Point>
			</Placemark>
			<Placemark>
				<description>90308</description>
				<name>Mount Ayles</name>
				<Style>
					<IconStyle>
						<color>ffc0c0c0</color>
					</IconStyle>
				</Style>
				<Point>
					<extrude>1</extrude>
					<coordinates>-77.30,82.716699997599164,0.00 </coordinates>
				</Point>
			</Placemark>
			<Placemark>
				<description>90309</description>
				<name>Chapman Glacier</name>
				<Style>
					<IconStyle>
						<color>ffc0c0c0</color>
					</IconStyle>
				</Style>
				<Point>
					<extrude>1</extrude>
					<coordinates>-79.8833,81.28,0.00 </coordinates>
				</Point>
			</Placemark>
			<Placemark>
				<description>90310</description>
				<name>McKinley Bay</name>
				<Style>
					<IconStyle>
						<color>ffc0c0c0</color>
					</IconStyle>
				</Style>
				<Point>
					<extrude>1</extrude>
					<coordinates>-79.20,81.133299998477156,0.00 </coordinates>
				</Point>
			</Placemark>
			<Placemark>
				<description>90311</description>
				<name>Mount Townsend</name>
				<Style>
					<IconStyle>
						<color>ffc0c0c0</color>
					</IconStyle>
				</Style>
				<Point>
					<extrude>1</extrude>
					<coordinates>-79.066699998510998,81.183299999689737,0.00 </coordinates>
				</Point>
			</Placemark>
			<Placemark>
				<description>90312</description>
				<name>Osborn Range</name>
				<Style>
					<IconStyle>
						<color>ffc0c0c0</color>
					</IconStyle>
				</Style>
				<Point>
					<extrude>1</extrude>
					<coordinates>-78.416667,81.416666889722052,0.00 </coordinates>
				</Point>
			</Placemark>
			<Placemark>
				<description>90313</description>
				<name>Mount Nebel</name>
				<Style>
					<IconStyle>
						<color>ffc0c0c0</color>
					</IconStyle>
				</Style>
				<Point>
					<extrude>1</extrude>
					<coordinates>-77.95,81.033300001292048,0.00 </coordinates>
				</Point>
			</Placemark>
			<Placemark>
				<description>90314</description>
				<name>Mount Kennedy</name>
				<Style>
					<IconStyle>
						<color>ffc0c0c0</color>
					</IconStyle>
				</Style>
				<Point>
					<extrude>1</extrude>
					<coordinates>-77.583300001861005,81.133299998477156,0.00 </coordinates>
				</Point>
			</Placemark>
			<Placemark>
				<description>90315</description>
				<name>Gull Glacier</name>
				<Style>
					<IconStyle>
						<color>ffc0c0c0</color>
					</IconStyle>
				</Style>
				<Point>
					<extrude>1</extrude>
					<coordinates>-77.416700000467003,81.41,0.00 </coordinates>
				</Point>
			</Placemark>
			<Placemark>
				<description>90316</description>
				<name>Yellowstone Creek</name>
				<Style>
					<IconStyle>
						<color>ffc0c0c0</color>
					</IconStyle>
				</Style>
				<Point>
					<extrude>1</extrude>
					<coordinates>-77.016700001258997,81.383299999299993,0.00 </coordinates>
				</Point>
			</Placemark>
			<Placemark>
				<description>90317</description>
				<name>Rollrock River</name>
				<Style>
					<IconStyle>
						<color>ffc0c0c0</color>
					</IconStyle>
				</Style>
				<Point>
					<extrude>1</extrude>
					<coordinates>-76.749999891325999,81.433332889005541,0.00 </coordinates>
				</Point>
			</Placemark>
			<Placemark>
				<description>90318</description>
				<name>Per Ardua Glacier</name>
				<Style>
					<IconStyle>
						<color>ffc0c0c0</color>
					</IconStyle>
				</Style>
				<Point>
					<extrude>1</extrude>
					<coordinates>-76.480600001814011,81.515300002082142,0.00 </coordinates>
				</Point>
			</Placemark>
			<Placemark>
				<description>90319</description>
				<name>Rollrock Glacier</name>
				<Style>
					<IconStyle>
						<color>ffc0c0c0</color>
					</IconStyle>
				</Style>
				<Point>
					<extrude>1</extrude>
					<coordinates>-76.033300001000001,81.541700000541979,0.00 </coordinates>
				</Point>
			</Placemark>
			<Placemark>
				<description>90320</description>
				<name>Yelverton Pass</name>
				<Style>
					<IconStyle>
						<color>ffc0c0c0</color>
					</IconStyle>
				</Style>
				<Point>
					<extrude>1</extrude>
					<coordinates>-78.333299999066995,81.666699998334892,0.00 </coordinates>
				</Point>
			</Placemark>
			<Placemark>
				<description>90321</description>
				<name>Fiala Glacier</name>
				<Style>
					<IconStyle>
						<color>ffc0c0c0</color>
					</IconStyle>
				</Style>
				<Point>
					<extrude>1</extrude>
					<coordinates>-76.75,81.65,0.00 </coordinates>
				</Point>
			</Placemark>
			<Placemark>
				<description>90322</description>
				<name>Air Force Glacier</name>
				<Style>
					<IconStyle>
						<color>ffc0c0c0</color>
					</IconStyle>
				</Style>
				<Point>
					<extrude>1</extrude>
					<coordinates>-76.583299998601007,81.683300001335439,0.00 </coordinates>
				</Point>
			</Placemark>
			<Placemark>
				<description>90323</description>
				<name>Mount Reeds</name>
				<Style>
					<IconStyle>
						<color>ffc0c0c0</color>
					</IconStyle>
				</Style>
				<Point>
					<extrude>1</extrude>
					<coordinates>-75.633300001791,81.5167,0.00 </coordinates>
				</Point>
			</Placemark>
			<Placemark>
				<description>90324</description>
				<name>Mount Sherwood</name>
				<Style>
					<IconStyle>
						<color>ffc0c0c0</color>
					</IconStyle>
				</Style>
				<Point>
					<extrude>1</extrude>
					<coordinates>-75.20,81.333299998088421,0.00 </coordinates>
				</Point>
			</Placemark>
			<Placemark>
				<description>90325</description>
				<name>Mount Biederbick</name>
				<Style>
					<IconStyle>
						<color>ffc0c0c0</color>
					</IconStyle>
				</Style>
				<Point>
					<extrude>1</extrude>
					<coordinates>-74.466700002376001,81.55,0.00 </coordinates>
				</Point>
			</Placemark>
			<Placemark>
				<description>90326</description>
				<name>Ekblaw Lake</name>
				<Style>
					<IconStyle>
						<color>ffc0c0c0</color>
					</IconStyle>
				</Style>
				<Point>
					<extrude>1</extrude>
					<coordinates>-75.6667,81.666699998334892,0.00 </coordinates>
				</Point>
			</Placemark>
			<Placemark>
				<description>90327</description>
				<name>Sulphur Creek</name>
				<Style>
					<IconStyle>
						<color>ffc0c0c0</color>
					</IconStyle>
				</Style>
				<Point>
					<extrude>1</extrude>
					<coordinates>-75.00,81.60,0.00 </coordinates>
				</Point>
			</Placemark>
			<Placemark>
				<description>90328</description>
				<name>Adams Glacier</name>
				<Style>
					<IconStyle>
						<color>ffc0c0c0</color>
					</IconStyle>
				</Style>
				<Point>
					<extrude>1</extrude>
					<coordinates>-74.416700001166006,81.628300001049681,0.00 </coordinates>
				</Point>
			</Placemark>
			<Placemark>
				<description>90329</description>
				<name>Mount Wiley</name>
				<Style>
					<IconStyle>
						<color>ffc0c0c0</color>
					</IconStyle>
				</Style>
				<Point>
					<extrude>1</extrude>
					<coordinates>-74.166700000351,81.65,0.00 </coordinates>
				</Point>
			</Placemark>
			<Placemark>
				<description>90330</description>
				<name>Kensington Lake</name>
				<Style>
					<IconStyle>
						<color>ffc0c0c0</color>
					</IconStyle>
				</Style>
				<Point>
					<extrude>1</extrude>
					<coordinates>-72.90,81.75829999791479,0.00 </coordinates>
				</Point>
			</Placemark>
			<Placemark>
				<description>90331</description>
				<name>Henrietta Nesmith Glacier</name>
				<Style>
					<IconStyle>
						<color>ffc0c0c0</color>
					</IconStyle>
				</Style>
				<Point>
					<extrude>1</extrude>
					<coordinates>-72.876699998451002,81.798300000980078,0.00 </coordinates>
				</Point>
			</Placemark>
			<Placemark>
				<description>90332</description>
				<name>Garfield Range</name>
				<Style>
					<IconStyle>
						<color>ffc0c0c0</color>
					</IconStyle>
				</Style>
				<Point>
					<extrude>1</extrude>
					<coordinates>-72.666700000700004,81.80,0.00 </coordinates>
				</Point>
			</Placemark>
			<Placemark>
				<description>90333</description>
				<name>Dodge River</name>
				<Style>
					<IconStyle>
						<color>ffc0c0c0</color>
					</IconStyle>
				</Style>
				<Point>
					<extrude>1</extrude>
					<coordinates>-68.666666999634003,81.516667001431173,0.00 </coordinates>
				</Point>
			</Placemark>
			<Placemark>
				<description>90334</description>
				<name>Silene Creek</name>
				<Style>
					<IconStyle>
						<color>ffc0c0c0</color>
					</IconStyle>
				</Style>
				<Point>
					<extrude>1</extrude>
					<coordinates>-77.20,81.35,0.00 </coordinates>
				</Point>
			</Placemark>
			<Placemark>
				<description>90335</description>
				<name>Kettle Lake</name>
				<Style>
					<IconStyle>
						<color>ffc0c0c0</color>
					</IconStyle>
				</Style>
				<Point>
					<extrude>1</extrude>
					<coordinates>-76.716699999233001,81.40,0.00 </coordinates>
				</Point>
			</Placemark>
			<Placemark>
				<description>90336</description>
				<name>Lewis Lake</name>
				<Style>
					<IconStyle>
						<color>ffc0c0c0</color>
					</IconStyle>
				</Style>
				<Point>
					<extrude>1</extrude>
					<coordinates>-74.583300002559994,81.50,0.00 </coordinates>
				</Point>
			</Placemark>
			<Placemark>
				<description>90337</description>
				<name>Nesmith River</name>
				<Style>
					<IconStyle>
						<color>ffc0c0c0</color>
					</IconStyle>
				</Style>
				<Point>
					<extrude>1</extrude>
					<coordinates>-72.733299999671985,81.833299999733171,0.00 </coordinates>
				</Point>
			</Placemark>
			<Placemark>
				<description>90338</description>
				<name>Air Force River</name>
				<Style>
					<IconStyle>
						<color>ffc0c0c0</color>
					</IconStyle>
				</Style>
				<Point>
					<extrude>1</extrude>
					<coordinates>-76.70,81.483332890217142,0.00 </coordinates>
				</Point>
			</Placemark>
			<Placemark>
				<description>90339</description>
				<name>Mount Arthur</name>
				<Style>
					<IconStyle>
						<color>ffc0c0c0</color>
					</IconStyle>
				</Style>
				<Point>
					<extrude>1</extrude>
					<coordinates>-74.766699999162995,81.333299998088421,0.00 </coordinates>
				</Point>
			</Placemark>
			<Placemark>
				<description>90340</description>
				<name>Cape Fernald</name>
				<Style>
					<IconStyle>
						<color>ffc0c0c0</color>
					</IconStyle>
				</Style>
				<Point>
					<extrude>1</extrude>
					<coordinates>-78.616699998092002,81.122200001267814,0.00 </coordinates>
				</Point>
			</Placemark>
			<Placemark>
				<description>90341</description>
				<name>May Creek</name>
				<Style>
					<IconStyle>
						<color>ffc0c0c0</color>
					</IconStyle>
				</Style>
				<Point>
					<extrude>1</extrude>
					<coordinates>-76.916699998837004,81.40,0.00 </coordinates>
				</Point>
			</Placemark>
			<Placemark>
				<description>90342</description>
				<name>Omega Lakes</name>
				<Style>
					<IconStyle>
						<color>ffc0c0c0</color>
					</IconStyle>
				</Style>
				<Point>
					<extrude>1</extrude>
					<coordinates>-76.45,81.45,0.00 </coordinates>
				</Point>
			</Placemark>
			<Placemark>
				<description>90343</description>
				<name>Lake Tuborg</name>
				<Style>
					<IconStyle>
						<color>ffc0c0c0</color>
					</IconStyle>
				</Style>
				<Point>
					<extrude>1</extrude>
					<coordinates>-75.583300000579982,80.95,0.00 </coordinates>
				</Point>
			</Placemark>
			<Placemark>
				<description>90344</description>
				<name>Turnstone Glacier</name>
				<Style>
					<IconStyle>
						<color>ffc0c0c0</color>
					</IconStyle>
				</Style>
				<Point>
					<extrude>1</extrude>
					<coordinates>-73.916699999535993,81.666699998334892,0.00 </coordinates>
				</Point>
			</Placemark>
			<Placemark>
				<description>90345</description>
				<name>Adams River</name>
				<Style>
					<IconStyle>
						<color>ffc0c0c0</color>
					</IconStyle>
				</Style>
				<Point>
					<extrude>1</extrude>
					<coordinates>-73.033333000203001,81.633332888615868,0.00 </coordinates>
				</Point>
			</Placemark>
			<Placemark>
				<description>90346</description>
				<name>Henrietta River</name>
				<Style>
					<IconStyle>
						<color>ffc0c0c0</color>
					</IconStyle>
				</Style>
				<Point>
					<extrude>1</extrude>
					<coordinates>-72.416666608477982,81.733333310134995,0.00 </coordinates>
				</Point>
			</Placemark>
			<Placemark>
				<description>90347</description>
				<name>Macdonald River</name>
				<Style>
					<IconStyle>
						<color>ffc0c0c0</color>
					</IconStyle>
				</Style>
				<Point>
					<extrude>1</extrude>
					<coordinates>-76.916667000331998,81.41666688899403,0.00 </coordinates>
				</Point>
			</Placemark>
			<Placemark>
				<description>90348</description>
				<name>Burke Bay</name>
				<Style>
					<IconStyle>
						<color>ffc0c0c0</color>
					</IconStyle>
				</Style>
				<Point>
					<extrude>1</extrude>
					<coordinates>-78.70,81.133299998477156,0.00 </coordinates>
				</Point>
			</Placemark>
			<Placemark>
				<description>90349</description>
				<name>Cleaves Glacier</name>
				<Style>
					<IconStyle>
						<color>ffc0c0c0</color>
					</IconStyle>
				</Style>
				<Point>
					<extrude>1</extrude>
					<coordinates>-76.00,81.433300000512574,0.00 </coordinates>
				</Point>
			</Placemark>
			<Placemark>
				<description>90350</description>
				<name>Ad Astra Ice Cap</name>
				<Style>
					<IconStyle>
						<color>ffc0c0c0</color>
					</IconStyle>
				</Style>
				<Point>
					<extrude>1</extrude>
					<coordinates>-76.25,81.60,0.00 </coordinates>
				</Point>
			</Placemark>
			<Placemark>
				<description>90351</description>
				<name>Viking Ice Cap</name>
				<Style>
					<IconStyle>
						<color>ffc0c0c0</color>
					</IconStyle>
				</Style>
				<Point>
					<extrude>1</extrude>
					<coordinates>-75.75,81.5167,0.00 </coordinates>
				</Point>
			</Placemark>
			<Placemark>
				<description>90352</description>
				<name>Barbeau Peak</name>
				<Style>
					<IconStyle>
						<color>ffc0c0c0</color>
					</IconStyle>
				</Style>
				<Point>
					<extrude>1</extrude>
					<coordinates>-75.025000001478006,81.908300001551524,0.00 </coordinates>
				</Point>
			</Placemark>
			<Placemark>
				<description>90353</description>
				<name>Whisler Island</name>
				<Style>
					<IconStyle>
						<color>ffc0c0c0</color>
					</IconStyle>
				</Style>
				<Point>
					<extrude>1</extrude>
					<coordinates>-72.333300000464007,81.666699998334892,0.00 </coordinates>
				</Point>
			</Placemark>
			<Placemark>
				<description>90354</description>
				<name>Green Valley</name>
				<Style>
					<IconStyle>
						<color>ffc0c0c0</color>
					</IconStyle>
				</Style>
				<Point>
					<extrude>1</extrude>
					<coordinates>-76.80,81.41669999751204,0.00 </coordinates>
				</Point>
			</Placemark>
			<Placemark>
				<description>90355</description>
				<name>Mount Bowman</name>
				<Style>
					<IconStyle>
						<color>ffc0c0c0</color>
					</IconStyle>
				</Style>
				<Point>
					<extrude>1</extrude>
					<coordinates>-76.50,81.35,0.00 </coordinates>
				</Point>
			</Placemark>
			<Placemark>
				<description>90356</description>
				<name>Arrow Glacier</name>
				<Style>
					<IconStyle>
						<color>ffc0c0c0</color>
					</IconStyle>
				</Style>
				<Point>
					<extrude>1</extrude>
					<coordinates>-72.066700001887995,81.858300000339952,0.00 </coordinates>
				</Point>
			</Placemark>
			<Placemark>
				<description>90357</description>
				<name>Rollrock Lake</name>
				<Style>
					<IconStyle>
						<color>ffc0c0c0</color>
					</IconStyle>
				</Style>
				<Point>
					<extrude>1</extrude>
					<coordinates>-75.916700000815993,81.566700001148774,0.00 </coordinates>
				</Point>
			</Placemark>
			<Placemark>
				<description>90358</description>
				<name>Mount Timmia</name>
				<Style>
					<IconStyle>
						<color>ffc0c0c0</color>
					</IconStyle>
				</Style>
				<Point>
					<extrude>1</extrude>
					<coordinates>-76.416700002446007,81.41669999751204,0.00 </coordinates>
				</Point>
			</Placemark>
			<Placemark>
				<description>90359</description>
				<name>Cape Macoun</name>
				<Style>
					<IconStyle>
						<color>ffc0c0c0</color>
					</IconStyle>
				</Style>
				<Point>
					<extrude>1</extrude>
					<coordinates>-79.05,81.083299997265584,0.00 </coordinates>
				</Point>
			</Placemark>
			<Placemark>
				<description>90360</description>
				<name>Bridge Glacier</name>
				<Style>
					<IconStyle>
						<color>ffc0c0c0</color>
					</IconStyle>
				</Style>
				<Point>
					<extrude>1</extrude>
					<coordinates>-72.083299999649,81.85,0.00 </coordinates>
				</Point>
			</Placemark>
			<Placemark>
				<description>90361</description>
				<name>Mount Connell</name>
				<Style>
					<IconStyle>
						<color>ffc0c0c0</color>
					</IconStyle>
				</Style>
				<Point>
					<extrude>1</extrude>
					<coordinates>-74.166700000351,81.60,0.00 </coordinates>
				</Point>
			</Placemark>
			<Placemark>
				<description>90362</description>
				<name>Blister Creek</name>
				<Style>
					<IconStyle>
						<color>ffc0c0c0</color>
					</IconStyle>
				</Style>
				<Point>
					<extrude>1</extrude>
					<coordinates>-71.449999888719006,81.816666610564639,0.00 </coordinates>
				</Point>
			</Placemark>
			<Placemark>
				<description>90363</description>
				<name>Mount Thompson</name>
				<Style>
					<IconStyle>
						<color>ffc0c0c0</color>
					</IconStyle>
				</Style>
				<Point>
					<extrude>1</extrude>
					<coordinates>-76.95,81.25,0.00 </coordinates>
				</Point>
			</Placemark>
			<Placemark>
				<description>90364</description>
				<name>Tanquary Camp</name>
				<Style>
					<IconStyle>
						<color>ffc0c0c0</color>
					</IconStyle>
				</Style>
				<Point>
					<extrude>1</extrude>
					<coordinates>-76.90,81.40,0.00 </coordinates>
				</Point>
			</Placemark>
			<Placemark>
				<description>90365</description>
				<name>Mount Koch</name>
				<Style>
					<IconStyle>
						<color>ffc0c0c0</color>
					</IconStyle>
				</Style>
				<Point>
					<extrude>1</extrude>
					<coordinates>-75.333299999765998,81.183299999689737,0.00 </coordinates>
				</Point>
			</Placemark>
			<Placemark>
				<description>90366</description>
				<name>Turnstone River</name>
				<Style>
					<IconStyle>
						<color>ffc0c0c0</color>
					</IconStyle>
				</Style>
				<Point>
					<extrude>1</extrude>
					<coordinates>-72.833300002094006,81.666699998334892,0.00 </coordinates>
				</Point>
			</Placemark>
			<Placemark>
				<description>90367</description>
				<name>Abb&#233; Glacier</name>
				<Style>
					<IconStyle>
						<color>ffc0c0c0</color>
					</IconStyle>
				</Style>
				<Point>
					<extrude>1</extrude>
					<coordinates>-71.50,82.02,0.00 </coordinates>
				</Point>
			</Placemark>
			<Placemark>
				<description>90368</description>
				<name>Steeprock Glacier</name>
				<Style>
					<IconStyle>
						<color>ffc0c0c0</color>
					</IconStyle>
				</Style>
				<Point>
					<extrude>1</extrude>
					<coordinates>-76.15,81.5167,0.00 </coordinates>
				</Point>
			</Placemark>
			<Placemark>
				<description>90369</description>
				<name>Lewis River</name>
				<Style>
					<IconStyle>
						<color>ffc0c0c0</color>
					</IconStyle>
				</Style>
				<Point>
					<extrude>1</extrude>
					<coordinates>-74.433299998926998,81.508300002330941,0.00 </coordinates>
				</Point>
			</Placemark>
			<Placemark>
				<description>90370</description>
				<name>Ptarmigan Creek</name>
				<Style>
					<IconStyle>
						<color>ffc0c0c0</color>
					</IconStyle>
				</Style>
				<Point>
					<extrude>1</extrude>
					<coordinates>-71.916666889737996,81.783333002264584,0.00 </coordinates>
				</Point>
			</Placemark>
			<Placemark>
				<description>90371</description>
				<name>Fishhook Point</name>
				<Style>
					<IconStyle>
						<color>ffc0c0c0</color>
					</IconStyle>
				</Style>
				<Point>
					<extrude>1</extrude>
					<coordinates>-77.583300001861005,81.3194,0.00 </coordinates>
				</Point>
			</Placemark>
			<Placemark>
				<description>90372</description>
				<name>Redrock Creek</name>
				<Style>
					<IconStyle>
						<color>ffc0c0c0</color>
					</IconStyle>
				</Style>
				<Point>
					<extrude>1</extrude>
					<coordinates>-76.75,81.433300000512574,0.00 </coordinates>
				</Point>
			</Placemark>
			<Placemark>
				<description>90373</description>
				<name>Niagara Glacier</name>
				<Style>
					<IconStyle>
						<color>ffc0c0c0</color>
					</IconStyle>
				</Style>
				<Point>
					<extrude>1</extrude>
					<coordinates>-75.00,81.533299997698734,0.00 </coordinates>
				</Point>
			</Placemark>
			<Placemark>
				<description>90374</description>
				<name>M&apos;Clintock Glacier</name>
				<Style>
					<IconStyle>
						<color>ffc0c0c0</color>
					</IconStyle>
				</Style>
				<Point>
					<extrude>1</extrude>
					<coordinates>-76.130599998578006,82.416700000802606,0.00 </coordinates>
				</Point>
			</Placemark>
			<Placemark>
				<description>90375</description>
				<name>Atka Lake</name>
				<Style>
					<IconStyle>
						<color>ffc0c0c0</color>
					</IconStyle>
				</Style>
				<Point>
					<extrude>1</extrude>
					<coordinates>-74.416700001166006,81.625,0.00 </coordinates>
				</Point>
			</Placemark>
			<Placemark>
				<description>90376</description>
				<name>Scylla Glacier</name>
				<Style>
					<IconStyle>
						<color>ffc0c0c0</color>
					</IconStyle>
				</Style>
				<Point>
					<extrude>1</extrude>
					<coordinates>-75.333299999765998,81.60,0.00 </coordinates>
				</Point>
			</Placemark>
			<Placemark>
				<description>90377</description>
				<name>Agassiz Ice Cap</name>
				<Style>
					<IconStyle>
						<color>ffc0c0c0</color>
					</IconStyle>
				</Style>
				<Point>
					<extrude>1</extrude>
					<coordinates>-76.00,80.25,0.00 </coordinates>
				</Point>
			</Placemark>
			<Placemark>
				<description>90378</description>
				<name>Yelverton Lake</name>
				<Style>
					<IconStyle>
						<color>ffc0c0c0</color>
					</IconStyle>
				</Style>
				<Point>
					<extrude>1</extrude>
					<coordinates>-78.083299998252002,81.633300000122858,0.00 </coordinates>
				</Point>
			</Placemark>
			<Placemark>
				<description>90379</description>
				<name>Kensington River</name>
				<Style>
					<IconStyle>
						<color>ffc0c0c0</color>
					</IconStyle>
				</Style>
				<Point>
					<extrude>1</extrude>
					<coordinates>-72.70,81.766667002254067,0.00 </coordinates>
				</Point>
			</Placemark>
			<Placemark>
				<description>90380</description>
				<name>Mount C.S. Smith</name>
				<Style>
					<IconStyle>
						<color>ffc0c0c0</color>
					</IconStyle>
				</Style>
				<Point>
					<extrude>1</extrude>
					<coordinates>-73.483300002117005,81.30,0.00 </coordinates>
				</Point>
			</Placemark>
			<Placemark>
				<description>90381</description>
				<name>Traverse River</name>
				<Style>
					<IconStyle>
						<color>ffc0c0c0</color>
					</IconStyle>
				</Style>
				<Point>
					<extrude>1</extrude>
					<coordinates>-72.033333002182005,81.683332811247439,0.00 </coordinates>
				</Point>
			</Placemark>
			<Placemark>
				<description>90382</description>
				<name>de Vries Glacier</name>
				<Style>
					<IconStyle>
						<color>ffc0c0c0</color>
					</IconStyle>
				</Style>
				<Point>
					<extrude>1</extrude>
					<coordinates>-78.333333,81.866666889736223,0.00 </coordinates>
				</Point>
			</Placemark>
			<Placemark>
				<description>90383</description>
				<name>Bent Glacier</name>
				<Style>
					<IconStyle>
						<color>ffc0c0c0</color>
					</IconStyle>
				</Style>
				<Point>
					<extrude>1</extrude>
					<coordinates>-78.270799997553993,81.323599998733116,0.00 </coordinates>
				</Point>
			</Placemark>
			<Placemark>
				<description>90384</description>
				<name>Nan Lake</name>
				<Style>
					<IconStyle>
						<color>ffc0c0c0</color>
					</IconStyle>
				</Style>
				<Point>
					<extrude>1</extrude>
					<coordinates>-72.333300000464007,81.216699997901785,0.00 </coordinates>
				</Point>
			</Placemark>
			<Placemark>
				<description>90385</description>
				<name>Cape Gleason</name>
				<Style>
					<IconStyle>
						<color>ffc0c0c0</color>
					</IconStyle>
				</Style>
				<Point>
					<extrude>1</extrude>
					<coordinates>-78.416699998487999,81.158299999083951,0.00 </coordinates>
				</Point>
			</Placemark>
			<Placemark>
				<description>90386</description>
				<name>Conger Range</name>
				<Style>
					<IconStyle>
						<color>ffc0c0c0</color>
					</IconStyle>
				</Style>
				<Point>
					<extrude>1</extrude>
					<coordinates>-75.30,81.53329999769872,0.00 </coordinates>
				</Point>
			</Placemark>
			<Placemark>
				<description>90387</description>
				<name>Charybdis Glacier</name>
				<Style>
					<IconStyle>
						<color>ffc0c0c0</color>
					</IconStyle>
				</Style>
				<Point>
					<extrude>1</extrude>
					<coordinates>-75.308299999159999,81.638299999197017,0.00 </coordinates>
				</Point>
			</Placemark>
			<Placemark>
				<description>90388</description>
				<name>Tumblerock Glacier</name>
				<Style>
					<IconStyle>
						<color>ffc0c0c0</color>
					</IconStyle>
				</Style>
				<Point>
					<extrude>1</extrude>
					<coordinates>-76.206699999457001,81.50,0.00 </coordinates>
				</Point>
			</Placemark>
			<Placemark>
				<description>90389</description>
				<name>Weasel Lake</name>
				<Style>
					<IconStyle>
						<color>ffc0c0c0</color>
					</IconStyle>
				</Style>
				<Point>
					<extrude>1</extrude>
					<coordinates>-72.733299999671985,81.833299999733171,0.00 </coordinates>
				</Point>
			</Placemark>
			<Placemark>
				<description>90390</description>
				<name>Tanquary Fiord</name>
				<Style>
					<IconStyle>
						<color>ffc0c0c0</color>
					</IconStyle>
				</Style>
				<Point>
					<extrude>1</extrude>
					<coordinates>-79.75,81.083299997265584,0.00 </coordinates>
				</Point>
			</Placemark>
			<Placemark>
				<description>90391</description>
				<name>Blister Ice Cap</name>
				<Style>
					<IconStyle>
						<color>ffc0c0c0</color>
					</IconStyle>
				</Style>
				<Point>
					<extrude>1</extrude>
					<coordinates>-72.083299999649,81.866699997945219,0.00 </coordinates>
				</Point>
			</Placemark>
			<Placemark>
				<description>90392</description>
				<name>Lake Hazen</name>
				<Style>
					<IconStyle>
						<color>ffc0c0c0</color>
					</IconStyle>
				</Style>
				<Point>
					<extrude>1</extrude>
					<coordinates>-71.016699997417007,81.797200001918029,0.00 </coordinates>
				</Point>
			</Placemark>
			<Placemark>
				<description>90393</description>
				<name>Ranger River</name>
				<Style>
					<IconStyle>
						<color>ffc0c0c0</color>
					</IconStyle>
				</Style>
				<Point>
					<extrude>1</extrude>
					<coordinates>-77.702777690000005,80.90388880970599,0.00 </coordinates>
				</Point>
			</Placemark>
			<Placemark>
				<description>90394</description>
				<name>Redrock Glacier</name>
				<Style>
					<IconStyle>
						<color>ffc0c0c0</color>
					</IconStyle>
				</Style>
				<Point>
					<extrude>1</extrude>
					<coordinates>-76.183299999393,81.441699998117826,0.00 </coordinates>
				</Point>
			</Placemark>
			<Placemark>
				<description>90395</description>
				<name>Very River</name>
				<Style>
					<IconStyle>
						<color>ffc0c0c0</color>
					</IconStyle>
				</Style>
				<Point>
					<extrude>1</extrude>
					<coordinates>-73.05,81.633332888615868,0.00 </coordinates>
				</Point>
			</Placemark>
			<Placemark>
				<description>90396</description>
				<name>Mount Lynn</name>
				<Style>
					<IconStyle>
						<color>ffc0c0c0</color>
					</IconStyle>
				</Style>
				<Point>
					<extrude>1</extrude>
					<coordinates>-74.766699999162995,81.383299999299993,0.00 </coordinates>
				</Point>
			</Placemark>